id,name,latitude,longitude,price
2515,Stay at Chez Chic budget room #1,40.7992047994,-73.9536757454,59
2539,Clean & quiet apt home by the park,40.6474860817,-73.9723695401,39
2595,Skylit Midtown Castle,40.7536207266,-73.9837738111,225
3330,++ Brooklyn Penthouse Guestroom ++,40.7085577833,-73.9423622764,70
3647,THE VILLAGE OF HARLEM....NEW YORK !,40.8090178491,-73.9419020804,150
3831,Cozy Entire Floor of Brownstone,40.6851377056,-73.9597574988,89
4989,Available! Perfect location! Entire apartment!,40.762600473,-73.9930449934,150
5054,Midtown West,40.7655085919,-73.986312802,150
5121,BlissArtsSpace!,40.6868819649,-73.9559570862,60
5136,Spacious Brooklyn Duplex + Garden,40.6611965628,-73.9942267741,253
5172,Quiet Slice of Manhattan,40.7449576802,-73.9742009976,129
5178,Large Furnished Room Near B'way ,40.764887103,-73.9849298528,79
5203,Cozy Clean Guest Room - Family Apt,40.8017793033,-73.9672294587,79
5238,Cute & Cozy Lower East Side 1 bdrm,40.7134437872,-73.9903746775,120
5295,Beautiful 1br on Upper West Side,40.8031581111,-73.965446454,135
5435,Upper West Side-Unique One Bedroom,40.8015501184,-73.9700007582,145
5441,Central Manhattan/near Broadway,40.760759874,-73.9886665457,126
5803,"Lovely Room 1, Garden, Best Area, Legal rental",40.6682902529,-73.9877909263,82
5945,Airy Room on the fabulous UWS ,40.7910461385,-73.9743445958,110
6090,West Village Nest,40.7353046774,-74.0052465913,175
6848,Only 2 stops to Manhattan studio,40.7083719867,-73.9535186885,140
6990,UES Beautiful Blue Room / Oak Room,40.7896241337,-73.9480201639,95
7097,Perfect for Your Parents + Garden,40.6916854446,-73.9718454939,215
7241,"Adorable, tons of light, Meatpacking",40.7390839452,-74.0038505034,144
7322,Chelsea Perfect,40.746873171,-74.0059519953,120
7801,Sweet and Spacious Brooklyn Loft,40.7184176022,-73.9571834326,299
7816,UWS Garden Getaway,40.7881895952,-73.9682204964,225
8024,CBG CtyBGd HelpsHaiti rm#1:1-4,40.680693983,-73.9770584966,130
8025,CBG Helps Haiti Room#2.5,40.6798949255,-73.977975799,110
8110,CBG Helps Haiti Rm #2,40.6800062918,-73.9786450822,110
8225,Stay at Chez Chic budget Room #2,40.7990341242,-73.9540629543,49
8343,"3BR, 1.5 BA East Village apt w/yard",40.7248081716,-73.9805652509,350
8490,"MAISON DES SIRENES1,bohemian apartment",40.683710749,-73.9402777424,120
9123,Clean East Village Studio,40.7250778097,-73.9836850739,135
9357,Midtown Pied-a-terre,40.7671538483,-73.9853290716,150
9518,"SPACIOUS, LOVELY FURNISHED MANHATTAN BEDROOM",40.8648167593,-73.921055413,44
9657,Modern 1 BR / NYC / EAST VILLAGE,40.7291982168,-73.9854152604,180
9668,front room/double bed,40.8224516257,-73.9510364278,50
9704,Spacious 1 bedroom in luxe building,40.8130526342,-73.954661682,52
9782,Loft in Williamsburg Area w/ Roof,40.7221931734,-73.9376194204,55
9783,back room/bunk beds,40.8213017961,-73.953183408,50
10452,Large B&B Style rooms,40.6831031535,-73.9547305323,60
10962,"Lovely room 2 & garden; Best area, Legal rental",40.6686925351,-73.9877983118,82
11708,Cute apt in artist's home,40.701856186,-73.9274497914,85
11900,Stay at The Brooklyn Apartment!,40.6901772444,-73.9522233678,140
11943,Country space in the city,40.6370231639,-73.9632722759,150
12048,LowerEastSide apt share shortterm 1,40.7140091302,-73.9891714902,35
12192,ENJOY Downtown NYC!,40.7229012276,-73.9819903873,65
12299,Beautiful Sunny Park Slope Brooklyn,40.6627787479,-73.979660031,120
12303,1bdr w private bath. in lofty apt,40.6967309453,-73.9758385907,120
12318,West Side Retreat,40.7900937466,-73.9792693239,135
12382,BROWNSTONE - 3 BEDROOM APT,40.6761083666,-73.9422695264,108
12579,Beautiful Clinton Hill Brownstone,40.684740001,-73.9668223581,380
12627,Entire apartment in central Brooklyn neighborhood.,40.6594353345,-73.9623802641,150
12937,"1 Stop fr. Manhattan! Private Suite,Landmark Block",40.7477081911,-73.9473954798,130
12940,Charming Brownstone 3 - Near PRATT,40.6811122414,-73.9559110368,110
13050,bright and stylish duplex,40.6855422591,-73.9409022274,115
13076,Beautiful and Huge Sunny Apartment,40.6750451314,-73.9643663875,110
13121,Right on Budget,40.6711699217,-73.765764282,68
13394,Fort Greene brownstone ,40.6914244883,-73.9737576437,80
13414,Cat Lover Bargain in Heart of Williamsburg,40.7178650789,-73.9590772492,40
13536,Room N3 in One family house,40.6614390673,-73.9469512702,50
13552,Cute Cozy Studio in Manhattan,40.7789758339,-73.9817143115,120
13808,Blue Room for 2 in Brownstone for $1350 monthly,40.6804255577,-73.9393366515,80
14287,Cozy 1BD on Central Park West in New York City,40.7863519992,-73.9700819713,170
14290,* ORIGINAL BROOKLYN LOFT *,40.7042019433,-73.9355968158,174
14314,Greenpoint Place...Has It All! ,40.735060823,-73.9539233806,144
14322,Beautiful Apartment in Manhattan!!!,40.7396124191,-73.9807431832,200
14377,Williamsburg 1 bedroom Apartment,40.7088081868,-73.9593015134,140
14434,Private Bliss Art Space 2,40.6877573438,-73.9501578461,60
14468,Under the Empire State Building/Midtown Manhattan,40.743541994,-73.9812220364,85
14694,Brooklyn Ditmas Park LUX Garden,40.6355312804,-73.9598675476,145
14708,"Brooklyn, Ditmas Park, The Roost",40.634707616,-73.9607773479,135
14991,"Great Location, Manhattan Bedroom!",40.7200352999,-73.9910409533,100
15220,Best Location in NYC! TIMES SQUARE!,40.7553098393,-73.9929293923,69
15230,Charming 2 Bedroom Yard Access,40.6866158266,-73.9327524988,185
15338,Room in Greenpoint Loft w/ Roof,40.7240105326,-73.9378798533,49
15385,"Very, very cozy place",40.7118507107,-73.9620400181,80
15491,Sleep by Night at CozySuite Chambre,40.6868462204,-73.9324478253,69
15493,Stay at the CozySuite Fortress,40.6852380149,-73.931433826,59
15509,Sleep at the CozySuite Sanctuary,40.6853841653,-73.9327087021,59
15700,Upper East Side  Charming 1 bd,40.7860826091,-73.952188622,110
15711,2 bedroom - Upper East Side-great for kids,40.7706541093,-73.9526947723,238
15729,Village Green,40.6769474783,-74.0112086631,89
15944,"Charming, Unique Prospect Heights Atelier & Loft",40.6768642883,-73.9696805874,98
16089,WALK to CENTRAL PARK-Your own 1 Bdrm,40.7694072036,-73.9504975886,225
16326,Comfortable 4-bedroom apt in family house.,40.6781054614,-73.9642844249,339
16338,Double Room w Private Deck Clinton Hill Best Area,40.6899966097,-73.9678782885,55
16422,Live-Work-Apartment: join the flair,40.6542341042,-73.9592089704,75
16458,Light-filled 2B duplex in the heart of Park Slope!,40.6734257844,-73.9833771909,225
16580,"Sunny, Modern room in East Village!",40.7264879483,-73.9790351541,80
16595,*Loft with Bedroom - Full Floor - Williamsburg NY*,40.7093302777,-73.9679176127,250
16737,East Village Duplex with Patio,40.724753761,-73.9824094411,120
16821,Large Room in Amazing East Village Apt,40.7229824701,-73.9847363267,79
16885,[1524-S] Lux Midtown East Studios - Walk to UN,40.7445004655,-73.9740372167,329
16928,Cute one-bedroom in Nolita!,40.7225197287,-73.9944090494,110
16974,SpaHa Loft: Enormous and Bright,40.8016424964,-73.9392213941,225
16990,Sleep at the CozySuite Pinacle,40.6849322945,-73.9316610388,59
17037,Lovely EV Artist's Home,40.721623967,-73.9800813419,210
17052,Bay Ridge Brooklyn Safe Haven,40.635014757,-74.0342646851,125
17092,Cool Room in Hell's Kitchen,40.7634192252,-73.9886541254,60
17226,Comfy home on the fabulous UWS,40.7879551536,-73.9768365615,170
17240,Stay at the CozySuite Citadelle,40.685112111,-73.9323957113,69
17297,Modern Brownstone living1,40.6813400499,-73.9363674212,180
17298,Modern Brownstone living3,40.6829056054,-73.9366381528,180
17299,Modern Brownstone living4,40.6827597299,-73.9350257263,180
17453,Couch for female in LES apartment,40.7199528564,-73.9854358275,75
17693,"HARLEM, NEW YORK WELCOMES YOU!!",40.8313857758,-73.9409537628,65
17747,BLUE TRIM GUEST HOUSE,40.683462749,-73.9637353238,105
18127,Charming East Village One Bedroom Flat,40.7282803646,-73.9880116208,170
18152,Manhattan Room,40.7686480505,-73.9505818954,240
18195,King of Queens w/ Private Bathroom,40.7459018756,-73.9076398921,90
18198,Little King of Queens,40.750382355,-73.9033391812,70
18590,Fort Greene Retreat on the Park,40.6932044371,-73.9726727811,85
18728,Beautiful Meatpacking District Loft,40.7413791416,-74.0019668588,119
18764,Cozy 2 BR in Williamsburg ,40.7115398392,-73.9611196545,129
19159,Spacious luminous apt Upper West NYC,40.8291523235,-73.9513608585,120
19169,Entire 2 Bedroom - Large & Sunny,40.7185120738,-73.9889234602,285
19282,"Sunny, Spacious Top Floor Haven",40.6540106055,-73.9632268547,140
19812,2 bedroom Williamsburg Apt - Bedford L stop,40.7183273184,-73.9574779421,95
20299,Oh glorious spring!,40.7233422021,-73.9844029332,60
20300,Great Location for NYC,40.7291197639,-73.9805709418,50
20311,Awesome Room w/ optional pvt Bath!,40.6720592135,-73.9634376531,70
20611,Cozy Bedroom in Williamsburg 3 BR,40.7115575514,-73.9621780404,84
20724,Sunny room+Pvte office in huge loft,40.7003210461,-73.9382958349,60
20734,Spacious Prospect Heights Apartment,40.6823327544,-73.9726101475,131
20853,2-bed brownstone duplex + garden,40.680350549,-73.9716215106,250
21293,Sunny Apartment in Artist Home,40.7009312956,-73.9260884858,105
21456,Light-filled classic Central Park ,40.7976422112,-73.9617748438,140
21644,"Upper Manhattan, New York",40.8280280716,-73.9473084685,89
21794,COZY QUIET room 4 DOOGLERS!,40.7400846415,-74.0027063798,111
22250,HEAVENLY BROWNSTONE RETREAT,40.6782044151,-73.975543968,200
22673,NYC - CHELSEA 1 BEDROOM SAFE + COOL,40.7457314272,-73.9956431375,185
23135,House On Henry (3rd FLR Suite),40.6807563187,-74.00087939,175
23501,Monkey Retreat Manhattan,40.8392703535,-73.9428133464,65
23545,Because Nice Matters-Upper Upper West Side 2bd/2ba,40.8274760805,-73.9506891687,240
23686,Private 3br 2bath West Village townhouse SALE!,40.7309633664,-74.0031930397,400
24143,"Williamsburg Oasis—Steps To Subway, Total Privacy",40.7133183597,-73.9417726573,101
24261,Beautiful 2 bedroom Apartment,40.6705325203,-73.9827893457,150
24266,Beautiful Studio Apartment,40.6704079415,-73.982329558,100
24269,Beautiful 3 Bedroom Apartment,40.6722070783,-73.9805640561,200
24281,Beautiful Studio Apartment 2,40.6710006595,-73.9836539892,100
24285,Beautiful Duplex Apartment,40.6694079798,-73.9810908546,250
25192,Sandra's Room,40.8900782015,-73.8533099694,150
25235,Large 2 Bedroom Great for Groups!,40.6837316183,-73.9237688898,125
25406,Modern Traveler's Suite in Brooklyn,40.7145913915,-73.9484431302,139
25696,"1,800 sq foot in luxury building",40.8091982445,-73.944209964,69
26012,Sunny 2-story townhouse w garden,40.6815686293,-73.989888245,200
26362,"Times Square, Safe, Clean and Cozy!",40.755265907,-73.9929090386,59
26520,"Large Cozy Room #3, Landmark Home 1 Block to PRATT",40.686980852,-73.9657180734,125
26540,Studio Apartment/Work Space in East Village,40.7264440491,-73.9860300356,200
26559,Beautiful Apartment East Village,40.7288007948,-73.9819234871,140
26785,Park Slope Green Guest House,40.6685347529,-73.9891160069,135
26864,Nice room in Prime W.Burg Location,40.7210117905,-73.9612057418,90
26954,NYC fabulous views Manhattan's eye,40.7429398242,-73.9800948656,199
26969,2 story family home in Williamsburg,40.7194173214,-73.9574786361,295
27006,Prime UWS 2-BD Family-Friendly Brownstone,40.7782270223,-73.9763677443,235
27024,"Priv Apt,Garden,BBQ,A/C,BigTV,for 4",40.7496814592,-74.0005222263,125
27385,Great Large 1 BR apt  in East Village!,40.7255516681,-73.9796537274,225
27531,Eveland Private Bed & Living Room w/ Own Entrance,40.6683106559,-73.9860411541,99
27644,Sugar Hill Rest Stop ,40.8275377697,-73.9491876196,170
27659,3 Story Town House in Park Slope,40.6649877742,-73.9792489523,400
27759,apartment next to Central park,40.7784209166,-73.975559659,170
27883,East Village Sanctuary,40.7224486928,-73.985269608,100
28083,SPECTACULAR view in a modern condo!,40.7184833668,-73.9515880762,149
28321,Large 1  BR in a 3 BR Brooklyn apt. next to Q Trn.,40.6559323748,-73.9605302929,75
28342,Scarlett Room--5 min. Grand Central,40.7421472681,-73.9527490259,125
28383,[2311-1] Lux 1 BR at Beekman Tower-5 Min. to U.N.,40.754663361,-73.9662025991,369
28396,Modern Apt with Spectacular Views,40.7192259287,-73.9646786964,90
28907,Garden studio in the Upper East Sid,40.7780049669,-73.9482154867,150
29012,Big Room in Beautiful Huge Apt,40.858791407,-73.9312847709,85
29013,B & B Room 1,40.6833179823,-73.9546964834,60
29414,Modern & Quiet Studio Downtown Manhattan!,40.7246666045,-73.9871445983,185
29455,ACCOMMODATIONS GALORE #1,40.8161757395,-73.9489419504,125
29594,Sunny private house with yard in trendy area,40.7125645267,-73.9395204922,96
29628,Sunny Room in New Condo,40.6841368136,-73.9635097274,89
30031,NYC artists’ loft with roof deck,40.7349449892,-73.9502990318,50
30222,Lovely Boerum Hill - PrivateTerrace,40.6859912453,-73.9907714652,105
30589,Sunny Williamsburg Penthouse,40.7125988254,-73.9500120679,119
30927,Unique & Charming small 1br Apt. LES,40.7134126781,-73.9885550435,105
30970,Classic Williamsburg,40.7159238253,-73.9385501526,80
31130,Most Central Location!,40.767540752,-73.9839872982,230
31425,"Bedroom, Private Ensuite Bath, Breakfast",40.7837630809,-73.978060495,155
31555,Luminous Beautiful West Village Studio,40.7344203759,-74.0030267918,125
31902,Sanctuary in East Flatbush,40.6318830456,-73.9324832506,77
31994,Room with En Suite Bathroom & Deck,40.6873045923,-73.9633989037,85
32023,FLAT MACDONOUGH,40.6829567726,-73.9366195615,125
32037,Huge Private  Floor at The Waverly,40.6863002138,-73.9676476196,125
32100,"Modern Greenpoint, Brooklyn Apt",40.734087074,-73.9534799503,275
32244,Ergonomic Parkside East Village 1BR,40.7252935096,-73.9847145047,200
32289,"Sun-drenched, artsy modernist 1+ BR",40.7156109658,-73.9483457894,199
32329,Fully Furnished Beautiful 1 Bedroom,40.7289533731,-73.9837665827,160
32331,"Sunny, Cobble Hill Apartment",40.6857041252,-73.9918271545,140
32363,Fully Furnished Basement Apartment,40.7402797968,-73.8316786778,140
32965,FLAT MACDONOUGH GARDEN,40.6828130405,-73.9352418186,115
33009,Retreat in Williamsburg,40.7149195595,-73.9593513801,195
33156,"Sunny, clean Zen Studio pr.Bath UWS",40.7884852851,-73.9688264537,132
33223,Cozy BR in Wiliamsburg 3 Bedroom,40.7116524894,-73.9608694946,78
33525,Single bedroom in a nice area,40.7110737309,-73.8293245275,105
34760,"Sunny Room in Townhouse, Historic Brooklyn",40.6910109669,-73.9731157005,44
35526,Sun Filled Classic West Village Apt,40.7347412316,-74.0010066733,156
35950,Charming Rental in Brooklyn Heights,40.6965523034,-73.9900779008,150
35963,Great 1 br Apt! Next to Manhattan!,40.7094831836,-73.9531502228,95
36121,Lg Rm in Historic Prospect Heights,40.6738632664,-73.9664097219,85
36133,Classic Artist Loft Williamsburg,40.7153558563,-73.9605680824,135
36442,"Great location! Spacious, Prospect Park",40.6741037907,-73.9659547082,115
36647,Private Bdrm/Bathrm. New! Elevator!,40.7929510376,-73.9399733988,69
36934,Great location in Williamsburg,40.7136323067,-73.9639796232,100
37197,bright east village apt in hot area,40.7212480445,-73.9817663756,155
38638,Light and Airy Upper East Side 1 BDR apartment,40.7771107384,-73.9527045811,219
38663,Luxury Brownstone in Boerum Hill,40.6855896647,-73.9809353409,475
38780,Great room to stay ,40.8546190691,-73.9317089648,60
38833,Spectacular West Harlem Garden Apt,40.81695221,-73.9460286102,69
39267,CENTRAL PARK LOFT all for YOU,40.7745623076,-73.9532316249,99
39282,Indie-Chic Share In Williamsburg,40.7108814604,-73.9505496772,69
39572,1 br in a 2 br apt (Midtown West),40.7623304994,-73.9885407242,119
39704,"Private, Large & Sunny 1BR w/W&D",40.6830609479,-73.946585802,135
39755,Spacious 2BR 2.5BA Upper West Side ,40.8003089802,-73.9680334404,250
40039,Luxurious Condo in DUBMO with View,40.7020650737,-73.9857102494,250
40084,Spacious Artist's Bedroom,40.6569960107,-73.9575205008,36
40248,Summer in Manhattan! Hip Harlem,40.8077426883,-73.9543452238,325
40453,Charming & Cozy midtown loft any weeks !!!,40.7612301783,-73.9641959851,250
41348,* Spacious GARDEN Park Slope Duplex* 6 people max,40.6685759798,-73.9908275746,250
41386,"Apt.in landmark Brownstone, Harlem",40.828905928,-73.943309051,117
41513,Convenient cozy cheap apt Manhattan,40.8270389839,-73.9490729569,80
41550,1 Bedroom  Apt./ Ft Greene ,40.6925449802,-73.9730116391,110
41959,Artist Studio 5' walk to CentrlPark,40.7905785868,-73.949777513,137
42300,Beautiful Lower East Side Loft,40.7182433475,-73.9931457457,450
42580, Parlor Room In Victorian Townhouse,40.6884307335,-73.9640830001,70
42729,House On Henry (2nd FLR Suite),40.6782973292,-74.0013483806,165
42744,"Charming, Spacious, Private, Yours",40.7900225975,-73.9748198276,899
42882,New York room with a view,40.645241679,-74.0808796743,70
43656,West Village Penthouse,40.7331698949,-74.0005455448,280
43957,Sunny cozy room in Brklyn townhouse,40.7064068097,-73.9176506245,50
44096,Room with a View,40.8323158218,-73.9318352086,36
44145,Hell's Kitchen funky 80's hideaway!!,40.7636712035,-73.9936385578,149
44161,Light+Open+Airy+Rustic+Modern Loft,40.7104545175,-73.9676982891,150
44212,West Inn 2 - East Village,40.7251782204,-73.9803427236,125
44221,Financial District Luxury Loft,40.7066619796,-74.0137413205,225
44229,BROOKLYN VICTORIAN STYLE SUITE.....,40.6909844702,-73.9711331247,110
44288,Private Lovely West Village Studio,40.7383668848,-74.0027574432,150
44472,Large Artists Designer Loft in NoHo,40.7282523494,-73.9928625346,385
44506,ACCOMMODATIONS GALORE#3. 1-5 GUESTS,40.8152563789,-73.9479087416,165
44698,cozy room SMILE as  you dream.,40.833055014,-73.8713307114,45
45556,"Ft. Greene, Brooklyn:Middle Bedroom",40.6886346592,-73.9769113993,75
45689,Fully Furnished 2BR - West Village,40.7383639154,-74.0044780941,395
45910,Beautiful Queens Brownstone! - 5BR,40.7038184183,-73.8979685753,370
45936,Couldn't Be Closer To Columbia Uni,40.8054933218,-73.9592369284,99
45940,Bright Spacious Condo,40.7162684242,-73.958697927,100
46544,Park Slope haven 15 mins from Soho,40.6799387827,-73.9786287443,150
46723,SAFE  AND BEAUTIFUL ACCOMODATION,40.6799185356,-73.9475018679,90
46859,Stay at the CozySuite Meridian,40.6867482229,-73.9322114963,59
46911,Large Room in private Brownstone in Park Slope,40.678682508,-73.973070954,120
47199,"NEW YORK CITY, 1 BDRM.(NEAR CENTRAL PARK & METRO)",40.7683419943,-73.9533368126,70
47362,"LARGE, COMFY 1BDR W/CHARACTER!!!",40.6823658374,-73.9414967911,175
47370,Chelsea Studio sublet 1 - 2 months,40.740305911,-73.9999875704,125
48719,Designer 1 BR Duplex w/ Terrace- Spectacular Views,40.7188242313,-73.9885152367,299
49715,Beautiful Room in Central Harlem,40.8058205829,-73.953402806,95
50174,"Spacious, Spotless 1Bd- BK Heights!",40.6924860929,-73.998052973,160
50726,Sunny + Spacious Brownstone Haven,40.6737088192,-73.9487129113,165
51438,1 Bedroom in 2 Bdrm Apt- Upper East,40.7733290889,-73.9519857604,130
51485,Lower East Side $60~/night,40.7231943924,-73.9920069364,83
51510,Great East Village Bedroom,40.7269150527,-73.9797635396,117
51533,Spacious Williamsburg BK 1br Apt ,40.7111434095,-73.9526966897,190
51572,Prime Location in Manhattan,40.7485903968,-73.9967087102,119
51778,The artist's house,40.655282464,-73.9559227019,40
51850,Excellent/Pvt Rm,40.6725242444,-73.765973747,55
51852,Private Rm2/With Pvt Bath,40.6722106865,-73.7657716586,58
52123,ONLY 10 min. AWAY from Midtown ,40.7599920063,-73.9288132611,155
52549,The artist's house part 2,40.6565089845,-73.9574787425,35
52757,"Park Slope - Big, Bright and Sunny",40.6634426854,-73.9923866324,65
53016,Bright &Spacious 3brm Crown Heights,40.6729120867,-73.9534131659,225
53137,"Quiet, sunny Midtown Manhattan apt.",40.7624352547,-73.9927107934,195
53196,Big Room/Washer-Dryer/Wifi/AC/JMZ,40.6954561941,-73.93503022,80
53469,cozy studio with parking spot,40.7172192371,-73.8785621509,98
53470,Clean and convenient 2BR apartment,40.7023430016,-73.8981556548,165
53477,Nice Queens townhouse with parking,40.7154632991,-73.878538425,265
53630,"Near Central Park, Clean, Safe, near subways",40.8013610336,-73.9625010348,69
53758,ARTY BOHEMIAN PRVT ROOM,40.7268142422,-73.9877723484,99
53843,Sunny Brooklyn studio,40.6424633304,-73.9643788591,60
54040,"Park Slope - Big, Bright and Sunny",40.6614109529,-73.9943675037,190
54158,The Institute—Heart of Williamsburg,40.7194966842,-73.9597598686,249
54163,Private Room & Office in Shared Williamsburg Apt.,40.7127374723,-73.9541929779,75
54453,MIDTOWN WEST - Large alcove studio,40.7654769683,-73.9847385984,105
54508,Sml Rm in pr Brst  Park Sl great for Med/students,40.6786970868,-73.9726158517,100
54544,City Room - Private Penthouse Apt.,40.8103488095,-73.9459833998,140
54626,Cozy bedroom by Yankee Stadium,40.8307528601,-73.9305847727,42
54694,Great Deal/Pvt Rm,40.672311126,-73.7661324945,55
54860,Great apartment with private bathroom and entrance,40.7995815916,-73.9427491658,100
55320,Peaceful & Cozy 1Br Apt in Residential Harlem,40.8061337556,-73.947369614,90
55467,Private Garden Apt • New Renovation,40.7162478186,-73.9384545545,140
55505,Nature-Themed Studio Apartment,40.6951566149,-73.9244028704,115
55565,Cosy Cool Apt By JMZ w/Washer-Dryer + Roof Space,40.6962539032,-73.9369584957,120
55668,"NOHO/EAST VILLAGE, PRIVATE 1/2 BATH",40.7277324291,-73.9913435902,130
55737,Sleek & Comfortable Soho Apt,40.7286149642,-74.0049002217,199
55959,Spacious Williamsburg Share w/ LOFT BED,40.7097939194,-73.9516167895,69
55982,Cozy 2 br in sunny Fort Greene apt,40.6865595969,-73.9752491995,62
56027,Charming Apt West of Times Square,40.7596891078,-73.9939652015,110
56467,Cozy East Village Railroad 1 Bed!,40.7275195679,-73.9843153725,130
56475,MODERN 2 BED 2 BATH HEART OF WILLIAMSBURG!,40.7198651699,-73.9615076943,329
56859,City Room - Private & Comfy Bedroom,40.8121906011,-73.9449882359,75
57161,Cozy Studio Apt.,40.8222298596,-73.9466125399,75
57166,Elegant NYC Pad,40.7718500112,-73.9050239026,140
57297,"Cozy 1BR in Cobble Hill, GREAT loc!",40.6892593727,-73.9938628043,139
57468,"Modern, Large East Village Loft ",40.7282105554,-73.9870090327,189
57618,"Great new apt, close to everything",40.7672009868,-73.985075086,250
57740,Quiet & Clean Retreat in the City,40.7301159187,-73.990525814,259
57874,The Brownstone-Luxury 1 Bd Apt/NYC,40.8093143907,-73.943433415,155
57901,Huge Room - Luxury Doorman Building,40.7969587884,-73.970469508,70
58059,PRIVATE Room on Historic Sugar Hill,40.825101128,-73.9428686953,60
58062,South Slope Green,40.6584998657,-73.9839662347,135
58101,2BR Super Cool SoHo / Nolita,40.7262368093,-73.9932732855,125
58257,Large homey flat for long term visits,40.731704622,-73.9526867185,150
58294,Sunny apt. in the center of SOHO,40.7255412647,-74.0036274064,249
58364,Budget studio near Times Square,40.7582294378,-73.9877741241,100
58467,"17 Flr. Manhattan Views, Nr. Subway",40.7619340878,-73.9501007035,120
58471,Huge Apt 2 BR Dining and Living roo,40.8146411197,-73.9490955891,160
59014,"Spacious 1BR, Adorable Clean Quiet",40.7205207422,-73.9858856897,129
59121,"Nice, clean, safe, convenient 3BR",40.7041144686,-73.8993393632,185
59431,4 X 6 MINI Me Room ONLY For Short Stay,40.8330053712,-73.8727042574,35
59709,"Artistic, Cozy, and Spacious w/ Patio! Sleeps 5",40.7175629499,-73.995034028,250
59818,Beautiful 2 BRM Greenwich Village,40.7321593955,-74.0093542389,250
60056,YOUR PRIVATE SUITE IN NEW YORK*****,40.7608468437,-73.9300436002,99
60084,Cozy Affordable Room,40.8230692501,-73.9373672079,65
60164,"Beautiful, elegant 3 bed SOHO loft",40.7200306179,-74.0026217816,500
60181,Sunny East Village Loft Apartment,40.7255394286,-73.9795636198,210
60457,Spacious Greenwich Village Apt,40.731938207,-73.9947398067,225
60611,SpaHa Studio Monthly Rental,40.7916335338,-73.9457346594,95
60666,City Room - Private Luxury Suite,40.8117986306,-73.9443363824,110
60680,The gem of the East Village,40.7265375354,-73.9804895368,99
60794,"Bright and spacious, garden below!",40.8002054705,-73.9607066603,159
60864,Location!!Sunny 2br in a brownstone,40.6766023802,-73.9798920419,160
60948,ACCOMMODATIONS GALORE #2,40.8094192474,-73.9393576078,140
61167,Colorful Private One Bedroom Apt,40.7196142287,-73.9953965472,135
61224,Huge Chelsea Loft,40.7435846997,-74.0002718821,410
61482,Hospitality in Historic Harlem,40.8047424059,-73.9488776432,90
61492,Exclusive Room with Private Bath in  LES,40.7144530055,-73.9907959055,115
62095,BK Sweet Suite w/Kitchen&FullBath,40.6444645202,-73.9502960309,65
62219,Nice room with a bed/bamboo floor-,40.7050152292,-73.9218816425,55
62230,Room in charming downtown apt (LES),40.7132439801,-73.98913264,105
62264,Big Luminous Private Room - Williamsburg Bedford L,40.721588516,-73.960184622,65
62427,Great East Village Apartment Rental,40.7268030218,-73.990792215,130
62452,A SpeciaL!! Private Room in NY,40.6353579257,-74.0853658146,30
62461,B NYC Staten Alternative...,40.6362655389,-74.08543405,30
62468,"Great Studio, Great Location",40.7932331742,-73.9726658557,150
62680,"Clean, private East Village apt ",40.7272184453,-73.9873373043,135
62787,C Private Room By The Ferry,40.6351828483,-74.0854590338,30
62891,Smallest House In The Village,40.7247741262,-73.9816093561,175
62903,Beautiful modern studio apartment in heart of NYC,40.7423849132,-73.9956680217,160
62925,Beautiful Landmarked Duplex,40.7294527847,-73.955112527,285
63003,Gramercy Park Comfort,40.7363707647,-73.9813128178,85
63154,Cozy Corners in Crown Heights!,40.6772730966,-73.9505539412,60
63299,Nice & Sunny Guest Room near Williamsburg Bridge!,40.7076281503,-73.9517737193,59
63320,D Private Che@p Room 2 Explore NYC,40.6348102763,-74.0851868113,30
63360,"Safe quaint cute & close+garden New York City, NY",40.7538400283,-73.9143252073,99
63373,"Quiet room in Carroll Gardens, Brooklyn",40.6824801257,-74.0007324908,70
63546,Large and Cozy Private Bedroom,40.641064243,-73.9742596344,39
63573,Small tidy bedroom in duplex,40.6679335602,-73.9832691359,60
63588,LL3,40.813089482,-73.8551391328,90
63610,DOMINIQUE'S NY CHIC SUITE-wifi/metro/sleeps 3*safe,40.8805734561,-73.8357233269,99
63640,Awesome Apartment in Prime Location - Monthly Deal,40.7401227047,-73.9854426609,175
63657,"Private, Large & Sunny 2BR w/W&D",40.6823578528,-73.943137579,160
63693,Cottage in the Village,40.721845232,-73.9824636598,390
63719,BEDROOM1 FOR RENT 10min from Manhan,40.685030573,-73.9538461184,80
63891,Relaxed room one person ONLY,40.8318919839,-73.8729400204,35
64000,Williamsburg > soho. 10 min /no less than15days,40.7069013607,-73.9546698904,60
64015,Prime East Village 1 Bedroom,40.7280723583,-73.9859388598,200
64107,BROOKLYN  STUDIO APARTMENT,40.6778025096,-73.9433945586,100
64277,BEDROOM2 FOR RENT  10min from Manh,40.6831681752,-73.9470069494,70
64314,cozy bedroom in lovely garden apt,40.6760985749,-73.9528969805,110
64361,East village one bedroom apartment,40.7216176212,-73.9796044783,130
64365,Crown Heights Garden Apt.,40.6758569101,-73.9515480168,60
64376,Very Small 1 Single Person Only No More 5 X 8 Room,40.8333332323,-73.8726810722,35
64504,"Prime Clinton Hill 3 bdrm, top fl corner building!",40.687247489,-73.9617837556,295
64551,Charming East Village Studio,40.7260668384,-73.9818169465,184
64627,Pied-a-terre sort of place,40.7824048965,-73.9812074088,125
64837,ENJOY Downtown NYC!!,40.7232130318,-73.9815740841,65
65019,Charming UWS Treehouse Apt,40.7795587358,-73.980983217,200
65268,Share a HOME - $75 for 1 bdrm/++ for 2 - Brooklyn,40.6827647397,-73.9526354853,75
65556,"Room in S3rd/Bedford, Williamsburg",40.7136809933,-73.9626034507,60
65562,CHARMING EAST VILLAGE 2 (or 1) BR,40.7295581085,-73.9815848109,111
65615,Farmhouse Apartment in Williamsburg,40.7106879257,-73.9517467957,150
65660,Bright+Spacious Williamsburg Abode!,40.7086316502,-73.9464096262,95
65813,"Suite Sugar Hill, Harlem, Private Rm in Hosted Apt",40.8288824893,-73.9430695394,75
65834,Beautiful 1 Bedroom Apt Park Slope,40.6731881662,-73.9732337518,175
65974,Private bedroom Brownstone Brooklyn,40.6712157948,-73.9464812372,25
66008,CHARMING CARROLL GARDENS APT.,40.6784637691,-73.9944317637,190
66026,Private Bedroom Brownstone Brooklyn,40.6714987792,-73.9480810144,57
66251,East Village Loft with Piano & Patio,40.7268104715,-73.9853418744,212
66275,Lower East Side Magic Room,40.7190444965,-73.9939247621,95
66340,Quality 1br 2 stops from Midtown,40.8225563735,-73.9448440802,133
66451,**Fantastic Williamsburg apt**,40.7103073994,-73.958304247,140
66718,West Harlem Home Base - Eco-Apt.,40.8132214602,-73.9530561021,128
66741,Charming Garden Apt in Park Slope,40.6773224901,-73.9822485009,150
66974,"Lovely, Modern, Garden Apartment",40.6807576546,-73.9896040961,190
67145,Clean Modern Uncluttered in Chelsea,40.7468439758,-74.0020552348,115
67208,"PERFECT Location, EXCELLENT Reviews",40.7313332462,-73.9877374037,113
67299,A Place to Stay in Williamsburg,40.7149185241,-73.9628222778,82
67397,SoHa comfort-by NW Central Park!,40.8039339326,-73.9583797345,125
67890,No window Room 1 person with love,40.8321113238,-73.8720751455,40
68099,Cozy room in Upper West Side,40.8008159426,-73.9652016342,109
68305,Your BEST Short Term Stay Eva!,40.8297560641,-73.94866828,85
68403,The Cozy Brownstone Inn (discount)!,40.6829961313,-73.9198061919,145
68735,Prewar Penthouse w Private Terrace,40.78971325,-73.9728959193,190
68765,Designer 2.5 BR Loft in Carroll Gardens by Subway,40.6781677535,-73.9949491043,250
68900,Bright Beautiful Brooklyn,40.7311883449,-73.9557788774,125
68974,Unique spacious loft on the Bowery,40.7194309365,-73.9962674112,575
69135, Soho Loft ,40.7201128695,-73.9994225749,400
69266,UES Stunning + Spacious 2br GEM !!,40.7798559259,-73.9481125474,149
69426,Fabulous 2 Floor 2 Bedroom LES Condo (31 Day Min),40.7220271266,-73.9863088706,167
69755,Private room in Manhattan apartment,40.8219591224,-73.9418762239,80
69894,"Nice renovated apt, prime location!",40.7800001343,-73.9824922406,150
69921,Brooklyn Writer's Nook,40.7051417502,-73.9192191627,70
70095,Private BR in Large NYC Apartment,40.8671341099,-73.9281142423,80
70216,New Bright Spacious BK 1 Bedrm Apt,40.7007890594,-73.9145660412,120
70279,Red Hook Modern Townhouse,40.6771389765,-74.0113035987,215
70609,Great Large 3 BR/2 Bath Duplex with Private Patio!,40.7254159789,-73.9798623944,500
71010,Private Harlem Renaissance Garden Apartment.,40.8349376595,-73.9386912708,295
71384,Gigantic Private Brooklyn Loft!,40.7289762452,-73.9555181547,229
71502,Crown of The Heights I,40.6741296295,-73.9406013529,85
71507,1 Bedroom Apartment on a quiet tree lined street,40.7539432407,-73.9667568344,200
72190,1BR: See Central Park from Terrace!,40.7772760071,-73.9781808208,150
72265,Private room in cozy Greenpoint,40.7264588824,-73.9534050361,55
72965,Cosy in Greenpoint! Summer deals!,40.7295441187,-73.9597598614,145
73586,in LIC - 5 minuts from the NYC,40.7492906899,-73.9426959311,180
73893,"Sweet Brooklyn Share, private bath",40.6799464786,-74.0027488357,140
74073,Sun-Fulled Apartment in Williamsburg,40.7101458279,-73.9610067171,195
74240,French Garden cottage off Bedford,40.7190347748,-73.9596979914,199
74680,One Bedroom Mini studio - Free WIFI,40.7763498751,-73.9342609489,115
74821,Deluxe Harlem 2 Bedroom,40.8064789059,-73.9486955856,149
74860,"Sunlit and Cozy Williamsburg/Greenpoint, Brooklyn",40.7248826618,-73.9501780098,55
75193,Large & Sunny Guest Room near Williamsburg Bridge!,40.7139771186,-73.9576336292,69
75635,Bright Cozy Chinatown Studio Apt.,40.7187573249,-73.9839430415,150
75658,cozy loft with gym+rooftop garden,40.6943576698,-73.9551168404,200
75770,Lovely  2bd Furnished Gramercy Park,40.7389819907,-73.9820684662,400
76761,Eveland Winter Sale of 5 Star Apt.,40.6655217819,-73.9901886885,169
77046,GRAMERCY STUDIO W/ PRIVATE PATIO,40.7351133259,-73.9790745973,149
77765,Superior @ Box House,40.737490433,-73.9529166935,179
77799,2B/2B Apt @ heart of Tribeca/BPC,40.7166782537,-74.0099740258,449
78331,Lrg Private Rm~1 stop to Midtown!,40.7458555131,-73.9491094534,85
78919,"Historic House Boerum Hill, BK, NYC",40.6867353477,-73.9887559743,135
79067,Lovely 3 bedroom in Italianate Brownstone w/garden,40.6848034269,-73.962194674,350
79749,Beautiful Garden Apartment,40.6748399655,-73.9537610595,125
79782,"WilliamsburgPRIVATE BATH,next2train",40.7051632286,-73.9545546701,120
80493,Cozy room in East Village with AC,40.7232901119,-73.9848586912,75
80684,Duplex w/ Terrace @ Box House Hotel,40.7377566621,-73.9532705433,349
80700,Loft w/ Terrace @ Box House Hotel,40.737381209,-73.9548155426,349
80924,Spacious 3 Bedroom Duplex in Park Slope,40.6754231054,-73.9814201257,275
81739,Loft w/ Terrace @ Box House Hotel,40.7384231403,-73.9531238033,249
82549,Columbia Castle in Brooklyn Heights,40.6925977648,-73.998318959,100
82550,Columbia Castle 2 BR,40.6944116067,-73.9977112174,200
82638,"Charming Artist's Flat, East Village",40.7239916572,-73.9837449259,169
82885,"Modern, airy and bright plant-filled duplex loft",40.7114520227,-73.9589529797,150
82928,BEAUTIFUL 2 BEDROOM APARTMENT,40.6823971461,-73.9461460838,185
83081,1 private bedroom in Greenpoint / BKLN,40.7298111948,-73.950942588,90
83243,Brooklyn Cove Studio Apt w/ Garden!!,40.6894916233,-73.917083761,65
83544,LUXURY LOFT ROOM,40.71747163,-73.9557003562,75
83760,Private Room SOHO,40.7202881706,-73.9973115454,89
83811,Large Patio - 2 Bedroom - LES Style,40.7150451611,-73.991076223,300
83847,East Village Designer's 1-BR APT,40.7245067691,-73.9809395038,225
84010,Superior @ Box House,40.7381331976,-73.9539353367,179
84059,So Much Room in Brooklyn,40.6759143897,-73.9471458374,150
84480,YOUR TRUE PRIVATE CORNER GEM IN NYC,40.7859297262,-73.9489070951,120
84659,Large Studio--Heart of East Village,40.7284306337,-73.9889525697,139
84905,Huge.Bright.Clean.Safe. Downtown NYC. Manhattan,40.7127133833,-73.9977558894,95
85094,Lux Garden Apartment in Brownstone,40.6696587353,-73.9473508655,70
86215,Great 2 br apt downtown Manhattan,40.719652818,-73.9876601609,129
86698,Cozy&Charming Pvt Bdrm in Bushwick!,40.7035863775,-73.9321333605,42
87279,A Cozy Uptown Private One Bedroom,40.8077030764,-73.9388987537,69
87853,Modern Design near CENTRAL PARK!!!,40.7835553694,-73.9845470903,159
88329,"Amazing 1 BR Apt in E. Village, NYC",40.728891655,-73.9844566031,169
89427,The Brooklyn Waverly,40.6861336758,-73.9653570515,650
89621,"WONDERFUL, COMFORTABLE STUDIO",40.6804788033,-73.9491081372,90
90426,Home Away From Home-Historic Harlem,40.80584509,-73.9471697094,127
92894,Large/bright Entire Apt. Lorimer L,40.7068787558,-73.9449324452,200
93313,MAISON DES SIRENES 2,40.6831383906,-73.939633122,120
93540,Big & bright Williamsburg 1 Bedroom,40.7091416616,-73.9616245263,200
94035,"Modern, Safe, Clean, Bright Room in Astoria for 2",40.7596136179,-73.911168473,80
94477,The Vernon On Greene,40.6930475693,-73.9318516705,175
94783,"Bright, Beautiful Warm & Spacious 1.5BR Apt",40.6717367173,-73.9566279191,121
95747,Lovely 1BR in Tree-lined WBurg,40.7105517989,-73.9509776411,140
95883,Spacious Loft in Clinton Hill,40.6946502987,-73.9545760921,200
96471,"The Brooklyn Waverly, One Bedroom",40.6841290163,-73.9654244911,165
98663,Groovy NYC Chelsea Pad - Late July-August,40.7489304262,-73.995442247,120
99070,Comfortable Cozy Space in El Barrio,40.7940648226,-73.9410231197,60
99913,Private Bed&Bath in Comfy Apartment,40.7906106986,-73.9455819899,100
100002,"MANHATTAN Neat, Nice, Bright ROOM",40.8529505754,-73.9336107536,67
100023,Newly Renovated Central Park Condo,40.8005382443,-73.9608361132,195
100184,Bienvenue,40.724134589,-73.7613342641,50
100186,Large Brand New Park Slope 1BR,40.6691803525,-73.9918727569,130
100368,Greenwich Village Brownstone -- Huge Private Deck,40.7394957872,-74.001232493,279
102995,UWS Brownstone Near Central Park,40.7855822962,-73.9696011824,212
103161,Artist Top Floor Apt in PRIME Williamsburg!,40.7157682297,-73.9605258195,195
103311,2 BR w/ Terrace @ Box House Hotel,40.738610546,-73.9548509204,599
105416,Cozy/Stylish Williamsburg 1 Bedroom,40.7056813471,-73.94983896,115
105469,Oceanfront Apartment in Rockaway,40.5861475832,-73.8124539083,70
105790,Holiday special near Columbia Univ!,40.8212347504,-73.9542374175,59
106010,Chic loft with private roof garden,40.7331122882,-73.9847032689,395
106363,Bright Room With A Great River View,40.8277259175,-73.9523133202,60
106647,Tree lined block modern apartment,40.6850485805,-73.9568366897,145
106906,Sunny Top Floor Fort Greene Two Bedroom,40.6862534979,-73.9671918974,90
107630,Sweet Historic Greenpoint Duplex,40.7291068757,-73.9549273613,175
107690,1- person everyone smile. Its NY. T.C.T.N.S,40.8314954911,-73.8728890682,35
107895,Riverside Charm with Fire Place,40.7794408763,-73.9856656246,140
110576,Historic House of Music & Art NYC!,40.7028430423,-74.0113611501,78
110739,Spacious Central Chelsea Loft Studio,40.745031432,-73.9887642474,169
110921,3 Bedroom Soho,40.7197215561,-73.9959743289,299
112304,Cozy Private Room in West Harlem!,40.8053995658,-73.9518873436,90
112359,UES Quiet & Spacious 1 bdrm for 4,40.7849079495,-73.9507976794,225
112435,ALL ABOUT A VERY COMFORTABLE ROOM..,40.6908770351,-73.97306863,95
113092,Rm in Beautiful Luxury Apt. Bldg,40.6905013173,-73.9786714567,90
113265,Brooklyn- Crown Heights Garden Apt.,40.6755499129,-73.9505682223,52
113945,Cozy room in Time Square!,40.7583488821,-73.9919341652,100
114123,Large Park Slope Townhouse Duplex,40.6652674705,-73.9886007864,225
114229,Lower East Side 2 Bedroom Apt,40.7189453509,-73.9943423376,250
114969,"Manhattan Studio, Perfect Location",40.7557905087,-73.9669939462,160
115535,Sun-Drenched Hamilton Hts Jewel   ,40.8239904,-73.9532773008,65
115678,Your Stunning Vacation Apartment!,40.8182184666,-73.9409468849,99
115748,1 BDRM Apt Astoria-Weekend Sublease,40.7643389359,-73.9213210515,110
116940,ROOM WITH A  KITCHENETTE,40.6770538397,-73.9492486083,80
117425,"Conveniently Located, Sunny Brooklyn Heights!",40.6926332783,-73.994380992,175
118061,Style in Stuyvesant Heights,40.6844766241,-73.9274683812,100
118680,Spacious East Village apt near it all,40.7306743967,-73.9870161635,87
118812,Crown of the Heights II,40.6733386527,-73.9426889069,85
120489,Artsy & Contemporary in Central Harlem,40.8084083203,-73.9496574097,199
121473,"Greenpoint, Brooklyn arty apt with great city view",40.7270695366,-73.9539329053,150
121861,"Park Slope Apt:, Spacious 2 bedroom",40.6764425346,-73.980819078,165
123784,NYC Studio for Rent in Townhouse,40.8048108703,-73.9479445381,110
125053,Quiet Gem on NY's Hottest Street,40.725326294,-73.9914312918,395
125163,Authentic New York City Living ,40.6856906579,-73.9303775993,99
125594,SUPER BIG AND COZY PRIVATE BEDROOM,40.6430231413,-73.972545607,39
126443,Huge 2BR 2Bath duplex in East Villa,40.7293922046,-73.9885729119,189
126816,Gorgeous Upper West Side Apartment,40.799184051,-73.9660657871,85
127387,"Luxe, Spacious 2BR 2BA Nr Trains",40.6686243285,-73.9925971247,260
128975,City Room - Street View Apt,40.8133259114,-73.9445312307,130
130439,***Manhattan NYC - Nice/clean Room!,40.8290748321,-73.9444626056,69
131154,Cozy and Bright One Bedroom in BK,40.7247322365,-73.951989658,140
131747,ELEGANT PRE-WAR APT* Best Upper West Location,40.7795470047,-73.9845044268,166
132516,Forest Hills Apt 15 mins to Manhattan,40.7092498168,-73.8526245679,97
132570,Spacious West Village 1 b/room King,40.7321549593,-74.009221234,170
132695,Perfect Williamsburg Summer Haven,40.711092917,-73.9433242277,125
133025,Midtown cozy convenient,40.7463005926,-73.9792647905,130
134224,3 level private house in Park Slope,40.6636820215,-73.9926691849,165
134671,Quiet 1-bed in great area,40.7277190835,-73.9995597919,162
134934,Prime Williamsburg Apartment,40.7182263457,-73.9584938828,225
135393,"Private, spacious room in Brooklyn",40.6510024112,-73.9488632115,52
135465,Garden apartment close to Manhattan,40.6862569941,-73.9759762772,170
135706,The Ground Studio - West Side,40.7448831095,-74.0010044088,132
136493,Stunning 3200sf 3FLR+3BR w/terrace,40.6763179391,-73.9761565357,250
136528,"Heart of UWS  2 bedroom, 1bath",40.777945222,-73.977873345,199
137121,Beautiful & Quiet Williamsburg Apt,40.7127455226,-73.9480917661,100
137303,Immaculate!1 BR East Village/Bowery,40.7247888307,-73.989497285,169
137558,MINIMALIST APT. HIGH-LINE AREA,40.7528365645,-74.0071511605,225
137671,Park Ave 1Br - heart of Manhattan,40.7445858175,-73.9814728169,180
138216,Sunny and Spacious Designer's Home,40.722116678,-73.9425432447,141
140053,Sunny Apartment in West Village,40.7327092574,-74.0032926896,220
140133,Truly Amazing Oasis In The City,40.7136296558,-73.960194159,249
140195,cozy room in east Harlem,40.798809516,-73.942886823,65
140425,Holiday Time in NY - Oh My!!,40.6754984116,-73.9587841057,79
140660,"Lrg Apt in trendy Prospect Hts, Bk",40.6757013921,-73.9673566512,135
140973,"East Village, King-Sized, Charmer",40.7227391564,-73.9758060304,185
141154,Affordable Furnished Apartment,40.6858005943,-73.9827976817,110
141335,Architect's Brownstone,40.6753464975,-73.9765427201,495
141890,LUXURY SOHO 2 Bedroom Apt ,40.7225492105,-73.9934563251,375
141984,Charming Nolita Apartment!!,40.7209389448,-73.997058441,175
142069,"EAST VILLAGE STUDIO, sunny & quiet",40.7248535215,-73.9781312296,150
144087,LUXURY OF THE HORIZON,40.8047343625,-73.9532049516,259
144148,1 Bdrm in 4 Bdrm dupelx/roof deck,40.7221694822,-73.9841925652,96
144428,"1 bedroom midtown east, 50th & 2nd",40.754442615,-73.9690668791,160
145064,The Heart of Prime Williamsburg,40.7194252917,-73.9565003022,145
145188,Parisian apartment in Chelsea,40.7424936588,-74.0032949078,200
145994,Cozy 1 Bedroom with Private Garden,40.7926436959,-73.9729427089,95
146189,"Your own colorful, light filled Village home",40.7307174709,-74.0002926564,140
146754,Quiet house in a family friendly neighborhood,40.6574942908,-73.9767473207,250
147586,Beautiful Duplex w/Private Garden,40.8047444021,-73.9468791985,295
148201,NYC - Sunny Greenwich Village 1br,40.7283070974,-74.001765729,175
148259,Garage Designer Loft,40.7154091862,-73.941442036,451
148825,Best Columbia U Upper West Side C Park 2-Bed rooms,40.7976508909,-73.9624459721,170
149210,Windsor Terrace/Kensington,40.6483989626,-73.975388084,120
149287,Your own apartment off Park Avenue,40.7850754746,-73.9533173547,250
149777,"Artsy, one bedroom 20 min from 42nd Grand Central!",40.8974747884,-73.8638969544,77
150285,"Bedroom, Kitch, Bath on 3rd Floor",40.7267345595,-73.9571652792,39
150804,Lower East Side 2 Bed Apt.,40.720075639,-73.9840429787,250
150883,Charming West Village Apartment,40.7285546568,-74.0030513115,165
151199,Astoria Apt-Private Home NYC,40.7572474226,-73.9109771963,129
152071,Park Slope Apartment,40.6735856051,-73.9790417099,150
152078,"Charming 2 bdr Apt- East Village,NY",40.7267398625,-73.9782035633,68
152259,City Room - Semi Private Bedroom,40.8115573331,-73.9457085522,55
152263,Cozy apartment in a brownstone,40.8049719468,-73.9501615203,300
152520,Female Only Clean15min to Manhattan,40.7384987314,-73.9180641581,42
153405,Greenpoint Spacious Loft,40.7293729767,-73.9567090536,125
153780,Private E. Village Townhouse Stay,40.7258716987,-73.9843807525,175
154934,Harlem/Hamilton Heights Cozy Room,40.8242558745,-73.9463039703,70
155158,SPACIOUS 1 BR LOFT IN EAST VILLAGE,40.7266660255,-73.9826357082,179
155296,Incredible Prime Williamsburg Loft!,40.7162361716,-73.9627155845,199
157431,"Room 1, Victorian Home to Enjoy!",40.6433695356,-73.9629187262,81
157442,Sunny 1 bedroom apt & private deck,40.6850380204,-73.9586269203,130
157673,Large  Loft Style  Studio  Space,40.6810128044,-73.9408126228,72
158061,Hancock Town House!-Stuyvesant Mews,40.6866944205,-73.9198855315,165
158176,Entire Apt in Heart of Williamsburg,40.7153394862,-73.959140129,125
158290,Clinton Hill + Free Coffee = #smile,40.6828804667,-73.960236433,75
158913,"Nice, cozy, neat apt Greenpoint,BK",40.7248869909,-73.9549403724,130
158955,PRIVATE and SUNNY Williamsburg Apt!,40.7086695984,-73.9428435311,99
159019,"Brooklyn Riad, Easy to the City!",40.7281234128,-73.9520645182,149
159749,Purple Room for 2/3 in brownstone $1450 per month,40.6796332906,-73.9390824973,88
159815,Red Room for two in Brownstone for $1355/mo,40.6798003179,-73.9390758324,80
159913,"Chelsea living, 2BR best location",40.7434619505,-73.9988230666,150
160609,WinterSpecialCentralPark/UWS 60's,40.7772430952,-73.9810925015,250
160952,King Size Comfort,40.6823068295,-73.96014774,100
160994,In the heart of East Village,40.7297239139,-73.9799524851,200
161394,Surfer room 15mins to downtown NYC!,40.7130874757,-73.9412830725,90
161996,Manhattan Penthouse-Max.12 guests ,40.8309597269,-73.9463320088,480
162493,Prime Williamsburg 3 BR with Deck,40.713233929,-73.9574533197,500
162501,Private Spacious Modern Studio,40.7200039587,-73.9633135691,220
162508,Beautiful Brooklyn Oasis ,40.6721236606,-73.9505995581,130
162565,"Sunny 1-BR, Meatpacking District",40.740788039,-74.0018293682,175
163627,Blue Room in Awesome Artist's Apartment!,40.7102330879,-73.9666504065,89
163809,Cool & Spacious Harlem Artist Flat,40.8052316713,-73.9513921432,198
163814,Studio in East village/own bath!,40.7263566363,-73.9891659263,99
163836,Greenpoint Loft / Le Chez Andrea,40.7218488877,-73.939563944,46
164989,"*SoHo: Clean, Safe, Private, Peaceful Bedroom (A)*",40.7235145207,-73.9968325701,140
165080,Amazing Brownstone in Best Brooklyn,40.6809012315,-73.9923330416,400
165461,Couldn't Be Closer To Columbia Uni2,40.8052528724,-73.9591587438,75
165573,Architect's Bookseller's Roof Lair ,40.7158251581,-73.9637680537,150
165919,Beautiful Share In The Heart Of Bushwick,40.6971864606,-73.9243629335,75
166006,Nice Manhattan Apt Near Central Park and Subway,40.8000646866,-73.9604866614,250
166172,LG Private Room/Family Friendly,40.7028308968,-73.9213083854,75
166279,Sunny Luxury East Village Apt w/ Private Roof Deck,40.7230769253,-73.9854705694,144
166541,Spacious Quiet rm - 20mins to Midtown,40.84467637,-73.9430339954,75
166983,"3 BR, Beautiful Brooklyn Duplex",40.6825241405,-73.996193789,350
167013,Spacious modern studio apartment in Manhattan,40.7434246551,-73.9948334649,166
167222,CBG# 4Tiny room w/ huge window/AC,40.6787997411,-73.9764305079,60
168084,Light-filled East Village Delight,40.7257759236,-73.9787869451,170
168123,Park Slope South-Sunny quiet legal homelike suite,40.6608503004,-73.9853683641,105
168546,Spacious Duplex in Brownstone!,40.8011279113,-73.9450337091,250
169063,Artistic East Village 1BR Apt.,40.7298284114,-73.981897434,170
169152,Warehouse Loft with Garden view,40.6813124645,-73.9533203662,75
169306, Affordable & Cozy ,40.8581144839,-73.9067497373,37
169464,Creative Vintage Loft in S. Williamsburg,40.7066707741,-73.9652406306,76
169480,"studio clean, safe,Times Square",40.7648346401,-73.988419333,150
169532,Airy Upper Westside Haven,40.7929401708,-73.9707548767,80
170084,"Inspiring, Cozy and Clean in NYC!",40.701570943,-74.0115357091,60
170420,The Happy home!,40.793198469,-73.9400654023,79
171562,Chelsea studio with balcony & views,40.7502744187,-73.9966614104,200
171776,Gorgeous 1 bdrm in huge duplex!,40.8022406393,-73.9455762221,170
171811,Gorgeous West Village Lofty 1 bedrm,40.7376072011,-74.0032755514,199
172445,Upper East Side Apartment ,40.7759825257,-73.9519777101,153
172499,Beautiful UES Family Apartment w/ discount,40.7793812701,-73.9487413981,499
172700,"Sunny, cozy room in Lower East Side",40.714732834,-73.9884243414,115
173072,Cozy Pre-War Harlem Apartment,40.8082685956,-73.9532858276,49
173151,spacious studio apartment,40.7290106107,-73.9581230913,91
173733,Designer's Sunny EV Oasis w/iPhone,40.731334771,-73.9846713707,140
173742,"Elegant 2-BR duplex, Union Square",40.7347572704,-73.9845179307,400
174716,The most convenient location in NYC,40.7518647082,-73.9963473083,125
174803,"studio apt for 1 guest, daily or weekly only",40.7342737799,-74.0047308827,165
174966,Luxury 2Bed/2.5Bath Central Park View,40.773503309,-73.986968663,2000
175069,Room Right by Columbia University,40.8057311108,-73.9662110147,79
176135,Cosy Sunny 1brm in Prospect Heights,40.6750460542,-73.9596947016,97
176653,East Village bedroom w rooftop,40.7297362111,-73.9820138055,100
176962,Williamsburg Home Away From Home!,40.7092530659,-73.9542473874,212
177421,Brand New Beautiful Duplex Apartment with Garden,40.7231456267,-73.9522642059,400
177606,SPACIOUS ALCOVE STUDIO/ JUNIOR ONE,40.7411219347,-73.9768604073,189
177709,Modern & Cozy in the East Village!,40.7236726487,-73.9806115949,75
179214,Private Bedroom for Rent -Near All!,40.8277751048,-73.9441236214,120
179428,Manhattan Cozy Room by Columbia Uni,40.8021335264,-73.9475372401,53
179670,High-end doorman bldg in the LES,40.7201895023,-73.9821745333,120
180507,Ultra Modern NYC Garden Apartment,40.7574364166,-73.9216265479,107
180822,Heart of East Village Lots of Light,40.728236128,-73.9832566223,99
181522,1BR ON PROSPECT PARK-CLOSE TO CITY ,40.6583027566,-73.9776237282,125
181972,Gorgeous Entire Manhattan Townhouse,40.8295975483,-73.9465101644,199
182062,Incredibly located and designed apt,40.7773462171,-73.9805073176,199
182069,Cozy studio Apartment in Upper East,40.7905563512,-73.9468040309,120
182177,PRIVATE FLAT / APARTMENT- $SPECIAL$,40.8646580453,-73.8570873879,125
182225,"Beautiful,spacious apt in Manhattan",40.7702797145,-73.9567567059,195
182649,Williamsburg bedroom by Bedford Ave,40.7131183669,-73.9619926721,60
182727,private backyard in williamsburg..!,40.7187788693,-73.9495603397,180
185266,"Clean, bright and sunny bedroom",40.7129730814,-73.9433625517,60
185478,Spacious Loft Like Apt at Brooklyn Yoga Club,40.6915489602,-73.9702289947,129
186178,Room in Historic Prospect Heights,40.6740284232,-73.9663877893,72
186305,peace and quiet in east village,40.7252701335,-73.988481355,170
186871,Cosy Lower East Side apartment,40.7194008893,-73.9892002964,179
187566,Historic Brooklyn Studio Apartment,40.692423483,-73.9509658855,99
187611,Large 1BD in Gorgeous 2BD Apt on Prime UWS,40.7805029489,-73.9765159821,99
187671,Beautiful East Village 1 Bedroom,40.7306575216,-73.9814879761,170
187986,Comfort at Crossroads of Downtown,40.7386157105,-73.99757651,250
188087,Full floor Trendy SOHO Loft 1600ft2,40.7194144306,-74.0041578003,395
188661,Sunny newly renovated garden apartment in Brooklyn,40.6826198763,-73.9729946432,165
188674,UNION SQUARE/ E. VILL 1BR BEAUTIFUL,40.7321653865,-73.9880134726,165
188803,"Ft. Greene, Huge 2 Floor Apartment Sublet/Share",40.6888206798,-73.9763080131,110
189181,Room in Chic Modern High Line Luxury- New!,40.7469509293,-74.0045383251,255
189732,Family & Friends in New York City,40.6749651776,-73.8730485884,169
189787,Spacious & Comfy BK Brownstone,40.6678791657,-73.9481263896,109
190267,Large Luxury Upper East Side Studio,40.7668357247,-73.9594402336,169
190542,Cozy Clean BK Loft for Female Travelers or Couples,40.6896660191,-73.9544504962,160
190968,Lovely Brooklyn Brownstone 2BR!,40.6794579022,-73.9650115558,215
190974,Beautiful Grdn. Apt. in Park Slope,40.6694449754,-73.9808319705,130
191075,Sun-drenched East Village Penthouse,40.7256646624,-73.977475198,110
193105,Lincoln Center Luxury Bldg - Private Room&Bath,40.7709045028,-73.9918123006,180
193240,Large 1 Bedroom in Best Location!,40.7492715597,-73.9866840522,400
193333,Bright Private Bedroom in Williamsburg (Bedford L),40.7194262963,-73.9595823182,65
193393,"Spacious, Kid-Friendly, and 15 Mins. to Midtown",40.7424852876,-73.9246601585,75
193853,Quiet Chelsea Studio w/Charm,40.7403343406,-74.0002392202,149
194154,Large Room Overlooking Central Park,40.7968974559,-73.961278003,89
195027,Private Bedroom in 2 Bedroom Share ,40.7717917875,-73.951323216,85
195089,New Yorker (near 96th subway),40.7851857844,-73.9502617807,140
195123,"Cheerful, comfortable room",40.8340279388,-73.9455299175,50
195233,Hospitality on Propsect Pk - Hosting for 10 Years.,40.6551324022,-73.9564059865,43
195240,"Prospect Pk, 4 train lines, 5 stops to NYC & Clean",40.6558908688,-73.9553869736,42
195989,"Sunny, Large, Park Slope Bedroom",40.6761730151,-73.9813574636,105
196010,Huge Bklyn Loft w Private Roofdeck,40.6759490825,-73.9805329942,265
197155,Quiet Jr Alcove Near Times Square!,40.7641507415,-73.9906736383,149
197253,Sunny Room+Pvte offce in huge loft ,40.7005041205,-73.9403176356,60
197390,GOOD FOR GROUPS! Duplex with yard,40.694533652,-73.9642773458,60
197753,Large room in elevator drman bldg,40.8312688513,-73.9471835694,55
197903,Manhattan Large R by Columbia Uni and CENTR. PARK,40.8021336017,-73.9468215879,50
197942,"Comfy, Cozy, Brooklyn close to Manhattan",40.6849727894,-73.9559249547,99
197948,Light Art Filled Red Hook Apt,40.6757822293,-74.0077948786,165
198028,Best of Astoria...steps to subway ,40.7761886006,-73.9125329472,75
198629,Manhattan modern apartment with huge terrace,40.7898294789,-73.9475933502,160
198786,Quiet Studio - Prime UWS Location,40.7789976194,-73.9853306536,165
199312,Sunny Space in Williamsburg,40.7113657442,-73.9436216045,100
199492,1b EHarlem Condo,40.7960510384,-73.9357571314,150
199693,"Family-friendly, ideal location",40.6848603064,-73.9932886536,175
200333,Modern apartment / Perfect Location,40.7429469524,-73.9918037642,600
200645,Best Manhattan Studio Deal!   ,40.7673919311,-73.9556963143,90
200955,STYLISH EAST VILLAGE FLAT,40.7308869654,-73.9819514016,160
201173,Sunny Bushwick Loft,40.7078358225,-73.9281738106,130
201992,Serene Park Slope Garden Apartment,40.6755000005,-73.9785934917,190
202273,Cozy and spacious - rare for NYC!,40.6881186037,-73.9493416171,67
203901,Beautiful UES apartment,40.7693965785,-73.9572044456,190
203907,Bay Ridge Brooklyn Safe Haven 2,40.6348858663,-74.0354847183,70
204065,Large Garden Triplex Apartment 1 block to PRATT,40.686337653,-73.9616091606,248
204833,"Great, spacious apt in Williamsburg",40.7093021561,-73.9497005579,100
204959,Comfortable. Spacious. Private Room. Downtown NYC,40.7129997388,-73.9975161815,95
205043,Modern Condo in Midtown,40.7589470195,-73.988300876,150
205485,Ideal Brooklyn Brownstone Apartment,40.6818619827,-73.9411348064,165
205735,"A Cozy Oasis in Bushwick, NY",40.6836350323,-73.9107631189,41
205867,Private Entrance - Private Parking,40.7189304557,-73.9428039626,120
206071,Cozy Budget Oasis 5 Minutes To Manhattan!,40.8280228,-73.9203851699,50
206316,"Sunny, Spacious Studio in Ft.Greene",40.6876467156,-73.9707335433,157
206772,Williamsburg Exposed Brick Loft,40.7141268405,-73.9659580019,150
206957,Bright Modern Charming Housebarge,40.5842168193,-73.9407884561,70
208095,Big Quiet Mod 1BR with Green Views,40.6589380716,-73.9893239485,126
208148,Central Bedford Avenue Apartment,40.7197271807,-73.9558159556,185
209310,"Metro to Midtown, Manhattan Views",40.7382643888,-73.9245790289,50
210531,Sunny Bedroom in Charming Harlem Pre-war,40.8263269751,-73.9496040835,58
211078,Greenpoint Waterfront Loft,40.7304856872,-73.9611523501,185
211974,East Village House -- Unique!,40.7295588993,-73.9790313554,250
212109,2-bed share in heart of W. Village!,40.7385377373,-74.0082104002,80
212178,1 Bedroom Pre War apt,40.7587706628,-73.9886274054,230
212199,Charming Abode In The Heart of NYC,40.7473270675,-73.9765960122,149
212544,Quiet One Bedroom in Park Slope,40.676878768,-73.9858982438,100
213330,RARE Penthouse Oasis featured on DesignSponge,40.7171172575,-73.9889829306,200
213714,GREAT LOCATION- 2BR- KINDA NOISY!,40.7157610901,-73.9986509647,135
213841,Sunny bright 2 bedroom apt,40.7929197325,-73.9509323815,145
214474,"Large, open space, nature, artistic",40.6145981045,-74.0362586855,27
214917,New Clean Spacious Bed & Breakfast,40.6074247225,-74.143876292,80
215560,"Sunny, calm room in Victorian home",40.6874141006,-73.9574060446,79
215784,Modern Unique Studio in NYC,40.7562679888,-73.9210996735,95
216015,Zen Home near Cafe Habana & Gitane,40.721577649,-73.9939480549,250
216080,Perfect for Yout Parents (Part 2),40.690998594,-73.9736978481,200
217660,Cozy Room in the East Village,40.7226020749,-73.9783729586,80
218224,1-BR Apt in the Lower East Side!,40.7198213156,-73.9832666581,140
218358,Your Haven in the Upper West Side,40.8077984869,-73.9520841596,80
219066,"Wonderful Studio In Brooklyn, NY!!!",40.6192185928,-73.9939945522,110
219482,A Cozy Brooklyn Hideaway,40.6827501051,-73.961476124,172
219922,"Lovely Bdr in Harlem, Manhattan",40.8160019437,-73.9554503966,100
220351,THE BEST DEAL ON THE HUDSON RIVER!!,40.8274807456,-73.9515297499,55
220563,Lovely HUGE Master Bed + Study,40.6863446526,-73.9508777468,75
220739,"Huge, Sunny 'n Swank Brooklyn Loft!",40.704369413,-73.9232039999,195
220946,Newly Reno’d Chic Quiet Exec 1BR,40.7222893344,-73.97901296,146
221043,1 Bedroom in prime Flatiron,40.7295597825,-73.9928710114,250
221618,Gorgeous PermaGO HOMES™ - FiDi - Room 1/2,40.7119321842,-74.0081679318,150
222054,CBG Helps Haiti Rm #3,40.6801221629,-73.9784678695,120
222304,BEST DEAL IN CHELSEA 1 bdrm NYC,40.7423307145,-73.9986508394,199
222913,Cozy two bedroom in L.E.S.,40.7123811654,-73.9832909843,220
223597,CBG Partner Prospect Pk Helps Haiti,40.6580125058,-73.9608139352,70
223930,Lovely Apartment,40.6742394221,-73.9666504559,150
224320,Large Furnished Room W/ Half Bathroom share Shower,40.6837771997,-73.9450557911,59
224510,"BEAUTIFUL APARTMENT, GREAT LOCATION",40.6865297222,-73.9856198806,230
225297,Quiet sunny studio Midtown,40.7426666068,-73.9856872444,125
225306,Charming room in Victorian home,40.6874860168,-73.9549400168,79
225887,Brooklyn B & B close to Manhattan,40.686448137,-73.9753802381,130
225926,The Erhart { low season discount },40.6899885722,-73.9671057131,159
225976,Sunny cozy multileveled apartment!,40.6107700627,-74.0682385094,72
226021,Sunny 2 bedroom Williamsburg Duplex w/ 3 beds,40.711257555,-73.945763614,220
226334,Sweet & Sunny Studio Heart of L.E.S,40.716426294,-73.9910770712,163
226584,Private studio in midtown NYC,40.7685993126,-73.9948284825,120
226700,Quiet  Rm 20 Minutes From Downtown,40.5964155856,-74.0954832458,85
227715,ROOM WITH KITCHENETTE #2,40.6785465371,-73.9494902828,80
228277,"Sunny, Arty 3 Bed Apt in Hamilton Hts Manhattan",40.830414098,-73.9491489076,279
228317,"Your Haven Awaits At ""Emma's Place""",40.6851615573,-73.9252080604,135
228496,Spacious 2 BR in West Village,40.735074534,-74.0004793011,279
228517,Great Bedroom in Downtown Manhattan,40.7161071036,-73.9982795988,110
228925,NOVEMBER SPECIAL $97 Beautiful Brownstone,40.6796437571,-73.9394573737,100
228979,1BDR - Hell's Kitchen Hideaway,40.761890592,-73.9899950781,130
229212,Quiet 1BR Apt in West Village/NYU,40.7330350013,-74.0036855992,199
229302,Private 1 bedroom Apartment W Patio near the Park!,40.774957868,-73.9558320618,70
229367,Comfy Room/East Village/Breakfast,40.7264457372,-73.9803455142,89
229668,Spacious and Fabulous Bedroom!,40.7410899655,-73.8608801327,55
229728,2 Bedrooms in Sunny Loft & Free Secure Parking,40.6992326976,-73.9326991217,9999
229874,Oversized Studio in Park Slope,40.6629319409,-73.9983289021,200
229965,Stunning Penthouse Duplex w/Terrace,40.8054304147,-73.9463348018,295
230321,Entire Apt+Subway+Empire State view,40.6904642984,-73.951674511,80
230854,Zen Budget Oasis 5 Minutes To Manhattan!,40.8300069014,-73.9215774583,50
230877,Monthly Apartment Rental,40.7923906688,-73.9453478773,123
230956,Wonderfully inviting East Village,40.7270887666,-73.9827416801,90
231154,Bargain Space,40.6723818455,-73.7658329149,70
231194,2bdrm Luxury Apt Fort Greene Bklyn,40.6849517652,-73.9733784585,199
231414,TURQUOISE: One-Bedroom Apt. in Soho,40.725985438,-74.0016823894,270
232612,"Delightful ,Private, Brooklyn studio",40.6830927515,-73.9421926429,110
232618,Incredible Furnish Bright Apt View,40.7944163067,-73.934334261,109
232624,"Cozy Private Room/Bath in Sunny, Arty Uptown Apt",40.8288165678,-73.9487395408,79
232866,"Bright, Private Crown Heights Room",40.6723578716,-73.9489019598,36
233189,NYC Studio in Heart of Times Square,40.7616619186,-73.9967526409,179
233638,rooms for rent in Queens with piano,40.7016277004,-73.908671604,55
233662,Large Sunny Luxe Prvt Room/Midtown,40.7557481741,-73.968419818,110
234034,Central Park & Lincoln Center,40.775863556,-73.979843679,325
234184,Spacious Stunning Harlem Townhouse,40.8090322201,-73.9419736388,312
234330,"Bright,Comfy Apt Near Central Park!",40.7979611795,-73.9491167915,59
234730,NYC - Home away from Home ,40.680796257,-73.9592927406,56
234814,"Tasteful, Cute 2 Bed LES Apartment!",40.7149231426,-73.9908015648,186
234870,Private Room With GREAT Location,40.7458091843,-73.9529474586,80
235281,Modern Luxury Apt- Lower East Side,40.7177405082,-73.9857354663,180
235515,Welcoming Small Comfortable Room!,40.700328514,-73.8298738118,50
235552,HUGE Sunny Duplex Loft with Garden,40.6641351239,-73.9857350652,300
235651,LARGE ARTSY Room w/ Loft Bed 4 DOOGLERS!,40.7400003478,-74.0038124335,110
235876,HUGE LOFT & TOP LOCATION IN NYC,40.7485705564,-73.9800156237,240
235951,Designer Midtown Studio & Terrace,40.753481556,-73.9706529668,190
235960,"LES private apt, 1 bedroom & more",40.7206578918,-73.9850571066,200
236671,1B+Garden in Prime Williamsburg-the Best Location!,40.7174646438,-73.9549699982,199
236788,"HUGE, modern 2-LEVEL Brooklyn apt",40.7025746799,-73.9847017004,350
236806,charming 2bdrm apt in East Village,40.7226357332,-73.9837042588,160
236949,The Heart of Greenwich Village NYC,40.7309299499,-74.0018955415,250
237127,LOCATION LOCATION LOCATION Liz's,40.7383331142,-73.9818632025,199
237162,Queens Finest Rooms/Master Bedroom,40.7015412475,-73.8310246517,60
237734,HUGE 4STAR APARTMENT!,40.7899557707,-73.9446296346,120
238085,Brooklyn NYC Garden Loft Rental,40.6795663814,-73.9457723999,175
238208,"Awesome,Colorful 1 Bedroom-W Harlem",40.8070075985,-73.9416978563,110
239055,Nolita Penthouse_Private Deck_Elev_,40.7189162439,-73.9962845017,300
239506,LG1B Sunny Luxury Brand New Doorman,40.7867038919,-73.9416644566,190
239733,Astoria Garden Suite,40.7767944165,-73.9168668863,68
239766,Lower East Side/Chinatown 1 Bedroom,40.716932985,-73.9894840655,100
239883,Private Room in Fort Green BK close to city,40.6850148034,-73.9701850084,85
239899,Spacious & Charming by Prospect Pk,40.6606790825,-73.9600319772,62
240800,Private Room Near Brooklyn Museum ,40.6772215449,-73.9654191299,55
241021,Harmony Hospitality House,40.8078961695,-73.9510208774,115
241140,The Wallace { low season discount },40.6897479064,-73.9670299716,350
241159,Clinton Hill 1 Bed Bright Loft Apartment,40.6922052859,-73.9586570693,110
241538,"Furnish BR, NO Inquiry 1st book it.",40.750157989,-73.893630709,89
241862,Great Studio in W. Village - NYC!,40.7296932704,-74.0063456608,200
242479,Cozy NYC room 25min to Times Square,40.7631348209,-73.915646438,69
242532,The Swoon { low season discount },40.6892993279,-73.9660187426,224
242585,Beautiful large studio with alcove,40.7586724683,-73.9892053759,199
242643,"BIG 1br, SLEEPS 4, dishwashr, TV",40.7083201382,-73.9415716058,140
243229,2BR  Apt - 20min to Soho,40.6801577966,-73.9487824945,280
243708,"Williamsburg, a better and cheaper Manhattan",40.7087543519,-73.9550813401,149
244235,Apartment in a Historical Home,40.6784221119,-73.9396127424,180
244547,Cosy apt close to Central Park!,40.766306912,-73.956372585,89
245430,Beautiful downtown loft / Five star reviews,40.7217161345,-74.0017485344,599
245504,One Fabulous Private Room,40.8588750806,-73.9288626327,71
245544,BIG AND NICE ROOM IN NEW YORK..,40.8678953439,-73.900230108,45
245574,Brooklyn Brownstone apartment,40.6889010188,-73.9538341708,180
245607, big 1 bedroom apt very central,40.7512685331,-73.9963716132,226
246030,Cosy apt in the Upper East Side,40.7665513925,-73.956587477,89
246134,"Lovely, Large Room in Crown Heights",40.6760676124,-73.9442144046,85
246351,"Sweet Apt, Steps From Gramercy Park",40.7383361267,-73.9823009559,135
246896,Love 2 Live in New York City ,40.6805516199,-73.9611224723,69
246916,Quality Cozy Studio Next to Subway,40.7346954451,-73.8806642302,79
246938,Scandinavian-apt for up to 5. LES,40.7187592992,-73.9885050319,146
246952,Fully Equiped Man Cave Plus,40.6821700472,-73.9607634364,59
247000,The Feel of being Home-Double Room,40.6825133025,-73.9610111114,109
247562,Luxorious Couples Or Solo Dean,40.7001397887,-73.8301481073,65
247778,Home away from Home in Chelsea,40.7506232437,-73.9968584741,199
248713,Charming Hell's Kitchen bedroom,40.7610819726,-73.9897899955,100
248717,Brownstone comfort + beautiful yard,40.673602687,-73.9811259884,65
248865,Loft Suite @ Box House Hotel,40.7378749319,-73.9538456037,199
248871,4 BEDROOM -2BATHRM WEST VILLAGE DUPLEX  TOWNHOUSE,40.7306564808,-74.0028694562,700
248946,Brooklyn Brownstone Bedroom,40.6911728299,-73.9412653356,50
249414,Large & bright 900ft² 1br in WV,40.7329127969,-74.0005895285,246
249704,"Sunny, Modern 1 BR in Williamsburg",40.7100526911,-73.940706493,140
249867,(Website hidden by Airbnb) HANCOCK SMALL ROOM,40.6870657405,-73.9191836412,125
250259,Pre-War Williamsburg Loft,40.7184035851,-73.9601897696,300
250311,1 Bedroom Available In My Two Bedroom Flat,40.6749496768,-73.9556274418,150
250323,SPACIOUS PRIVATE LITTLE ITALY FLAT,40.715816651,-73.9990172708,119
250536,The Lenox in Harlem,40.8106781405,-73.9428807093,125
250801, Heart & Soul of Greenwich Village ,40.7312931448,-73.9994397394,850
251262,Prime Williamsburg Loft off Bedford,40.7162837358,-73.9573701351,114
251277,Private Bdrm /Bath 1 block Ctrl Prk,40.7855818852,-73.9726002678,140
252076,+Highly Satisfactory LES dwelling++,40.7146041471,-73.9910049984,110
252349,Big Apple Biggest Luxury Space -Grand Villa,40.5752025112,-74.1372290902,1175
252607,Whole apartment / 2 bedroom in NYC,40.794930644,-73.9446221396,150
252865,21% off 21 days! BEST NEIGHBORHOOD!...NY Magazine,40.6791807806,-73.9721168083,70
253332,Private master suite in a spacious loft apartment,40.6623046204,-73.9904939046,170
253358,Mid-Century Modernist in Chelsea,40.742602656,-73.9978864446,415
253466,Loft Suite @ The Box House Hotel,40.7369283614,-73.9528366224,199
253471,Loft Suite @ The Box House Hotel,40.7364087995,-73.953296662,199
253475,Loft Suite @ The Box House Hotel,40.7379418215,-73.9525389069,199
253590,Large 1 Bedroom furnished on UWS,40.7977102837,-73.9632321757,185
253800,Loft Suite @ Box House Hotel,40.7372968656,-73.9532328055,199
253803,Loft Suite @ The Box House Hotel,40.7370783705,-73.9527113064,199
253806,Loft Suite @ The Box House Hotel,40.7365212186,-73.9523636744,199
253811,Loft Suite @ The Box House Hotel,40.7369324767,-73.9531648688,199
253815,Loft Suite @ The Box House Hotel,40.7378403261,-73.9532357444,199
253828,Duplex w/ Terrace @ Box House Hotel,40.7367401564,-73.9524716859,349
253839,Loft w/ Terrace @ Box House Hotel,40.7378338469,-73.9525868897,249
253842,1 BR w/ Terrace @ Box House Hotel,40.7371362055,-73.9529561492,299
253846,Superior @ Box House,40.7373058044,-73.9545037893,179
254131,"Read it 1st, A seprat fur BR, low $",40.7496490405,-73.8934418061,49
254168,2 BR Duplex @ Box House Hotel,40.737931157,-73.9531619525,599
254409,Husband & Wife Art-Filled Apartment,40.6819651884,-73.9654896497,110
254790,Lovely Radiant Private Room Williamsburg Bedford L,40.7188340123,-73.9616204617,65
255024,"3BR, 2 bathroom condo in Bushwick",40.7027085344,-73.9156561505,220
255476,ENTIRE FLOOR in VEGETARIAN WBURG DUPLEX wBACKYARD,40.7115995609,-73.9528969431,91
255601,Cozy 2 Bedroom 20 Min from City,40.6924110258,-73.9488546542,170
255637,"Prime Prospect Heights, Brooklyn",40.6733628367,-73.9654061515,65
255672,West Village Amazing 1Bedroom/1Bathroom+Patio area,40.7335811496,-74.0070130696,288
255957,NOLITA! LOCATION! LOCATION! VIEWS! FREE GYM!,40.7200431714,-73.9942387004,495
255996,Lofty Illuminated Brownstone Beauty,40.6871747835,-73.9225043322,125
256049,The Notorious B.N.B. { low season discount },40.6906354556,-73.9675740362,1036
256078,New York - 15 minutes from Times Square/Midtown.,40.745107295,-73.9239786465,55
256153,AMAZING BROWNSTONE 3 BEDROOM DUPLEX,40.690870416,-73.9356438887,265
256281,Floor thru in Brownstone Brooklyn!,40.6678473987,-73.9880368956,130
256328,Luxury Chelsea Townhouse at the High Line,40.7459941757,-74.0025305232,700
256369,Alchemy BnB - room in artist loft,40.6894555675,-73.9938461313,98
256506,Easy&Adorable! LG Room15toManhattan,40.684725874,-73.9498324836,75
257097,Sunny! Steps to train/restaurants/bars - 15 to NYC,40.6822562185,-73.9547325773,200
257568,Zen Den (Airport Pickup: JFK & LGA),40.6785511298,-73.8896021557,48
257787,Heart of Williamsburg. Brand New.,40.7140782553,-73.9489045717,64
257802,1 bedroom. Lower East Side. NYC,40.7196449276,-73.9864676948,200
258284,"Fresh, Clean Brooklyn Garden Apt.",40.6861827435,-73.9614368302,154
258397,Guest Apartment in Owner Occupied Home,40.6737916992,-73.9845356892,139
258686,My Home Is Your Home,40.7055389864,-73.7663721804,75
258688,Spacious & Stylish Chelsea One Bedroom Apartment,40.7403105146,-74.0053178572,325
258690,CHELSEA 1 Bdrm Plus Queen Pull Out Couch!!,40.746184786,-74.0039213148,195
258740,Spacious room in beautiful apt! ,40.8187180618,-73.9456668609,58
258774,"Brooklyn Habitat,  Brooklyn Bridge",40.685334633,-74.0063139333,95
258838,"Oceanview,close to Manhattan",40.5925121863,-74.0647894606,250
258876,"Affordable rooms,all transportation",40.59100613,-74.0668473033,50
259438,Huge beautiful 1 bedroom loft,40.6924657595,-73.959484928,105
259887,Amazing location! TimeSq 2BR conv. deal!,40.7575479969,-73.9910558015,150
259946,"Budget stay, near transportation",40.5926245056,-74.0665867386,125
260451,Fort Greene brownstone 1BR- SUBLET,40.6914191555,-73.9720293761,70
260618,"Large Studio-Private Bathroom, Kitchen & Patio",40.6628834718,-73.956662321,65
260672,Spacious Private Bedroom $800 Month,40.6768044029,-73.8906713352,42
260765,NewYork Modern Pre-War LoftStudio ,40.7692768512,-73.9502090524,189
261259,Apartment in Best location in NYC,40.7295275521,-74.0046171108,145
261344,ArtHouse in Historic Downtown NYC:),40.705226815,-74.0134547255,101
261674,Chelsea/West Village - 2bdrm apt,40.7402538055,-74.001605501,95
261781,1500+ sq ft 2BR West Village Loft,40.7337778196,-74.0042861048,375
262238,BEST LOCATION!!  Private apt SOHO,40.7251290564,-74.0016713249,168
262343,Cozy & Clean Lower East Side Apt.,40.7208692,-73.9902235391,153
262405,Spacious Townhome Apt in Brooklyn,40.644675075,-73.9421859153,92
262478,Chic + Stylish room in LowerEastSide NYC!,40.719300329,-73.9896602426,80
262583,Landmark 2 Bedroom West Village NYC,40.7331173763,-74.0041959525,300
263005,2 bedroom apt in brick townhouse,40.6977767809,-73.9767569685,135
263251,Unusual Greenpoint Apartment in Historic Building,40.7318841063,-73.9572255609,100
263502,Prime Williamsburg 1/BD New Condo,40.7205907826,-73.9566983989,185
263776,City Skyline Views from every room!,40.74557539,-73.9232400058,69
263888,Modern Sanctuary on the Hudson,40.7943331785,-73.9765039191,265
264323,Comfortable Manhattanville,40.8105480826,-73.9554854509,85
265036,Private room w/ queen bed + rooftop,40.6711040668,-73.9523103318,99
265064,Zen Eyrie –Airport Pick-Up: JFK/LGA,40.6796231996,-73.8892779973,48
265145,Studio sublet in Hell's kitchen,40.7621685925,-73.9841133438,200
265506,Luxury NYC 2 Bedroom with Terrace,40.7612835447,-73.964630578,485
265626,(Website hidden by Airbnb) walking distance.,40.7174959477,-73.9986352887,240
265831,Elegant sun-filled loft in the heart of Noho,40.723133423,-73.9943833,310
266351,SUNNY 1 Bedroom APT in Fort Greene - BROOKLYN,40.68737436,-73.9712514676,130
266437,West Village cozy 2 bedroom  NYC ,40.7413850298,-74.0005043409,220
266449,2 Bedroom Gem - Prime LES Location,40.7199223955,-73.9877323292,185
267294,"Sun-Drenched, Beautiful Brooklyn",40.6866627431,-73.9852906511,102
267435,Large Sunny Bedroom in QNS NYC,40.7334928689,-73.8600947989,50
267535,Home Away From Home-Room in Bronx,40.8955714718,-73.8446955464,50
267561,Sun filled Lower East Side 1 BR apt,40.7207796059,-73.9864214862,290
267652,Private clean pleasant spacious room.,40.6427720589,-73.9729609193,60
267708,Charming Hotel Alternative,40.7911149864,-73.9446639677,68
268281,Heart of Brooklyn Suite,40.6799320607,-73.9704401696,49
268392,SUNNY 2-bdrm CHILD-friendly Uptwn by Centrl Park!,40.7995078002,-73.9525720911,150
268439,Spacious bright Williamsburg 1 BR,40.7078210221,-73.9433546591,99
268481,Resort-like living in Williamsburg,40.7164727993,-73.9397419825,290
268549,Sunny Apartment in East Village,40.7275597046,-73.9851884888,110
268868,Renovated 2 bedrooms West Chelsea,40.751144203,-74.0019469839,225
269283,"Brooklyn, A Big Bedroom, Good Vibes",40.6643133444,-73.9321576875,50
269289,Stylish Manhattan Studio Apartment Upper East Side,40.7717461524,-73.9578011509,145
269889,One stop from Midtown Manhattan!,40.7457853575,-73.9501232357,95
270139,"Private Room Very Near L train, Bushwick",40.7027788265,-73.9267293089,45
270231,Cozy New York  City private room,40.744089044,-73.9112190139,85
270345,SUPER CUTE EAST VILLAGE APARTMENT,40.7245410537,-73.9915128204,200
270568,Cozy Living Room w/ Daybed,40.7633182967,-73.9890112044,70
271043,Spacious 1 Bedroom Apartment in Park Slope,40.6780058088,-73.9806323909,130
271083,Sleep & Wake near Botanical Gardens,40.6577246763,-73.9613109445,68
271128,Tranquil in the heart of Brooklyn 2,40.6888381133,-73.9505914584,60
271130,Tranquil in the heart of Brooklyn 1,40.6864971892,-73.9537221482,65
271694,"Easy, comfortable studio in Midtown",40.7528178738,-73.9731515117,125
271954,Beautiful brownstone apartment,40.7338776599,-73.9945201181,150
272026,1 Bdr. - MANHATTAN NY entire apt.,40.8577384675,-73.9290129283,115
272044,Luxury Designer Downtown Apartment,40.7225707664,-73.984650995,399
272146,LARGE UNIQUE ARTSY BEDROOM W/ PRIVATE BATHROOM,40.7418230531,-73.9809723442,125
272706,"SUNNY, SPACIOUS APT. in  FT. GREENE",40.6913466785,-73.9732136375,88
272738,Guest Room in Authentic Williamsburg Factory Loft,40.7051318658,-73.955046061,60
273190,HUGE 6 bedroom Landmark house NYC,40.7330098197,-74.0026826526,1300
273256,Beautiful bed and bath - Manhattan,40.7979303235,-73.9361195229,200
274062,Beautiful Room Near Central Park!,40.8028481912,-73.9516612956,90
274085,Cozy SUNNY Park Slope Apartment!,40.6689957322,-73.9889052876,115
274257,Duplex on the Upper East Side-59th,40.7632050172,-73.964352077,115
274329,Fantastic 1-bedroom basement apt.,40.7064190299,-73.9166481955,110
274376,"Private Clinton Hill, Brooklyn Apt",40.6815563077,-73.9653652679,135
274743,Charming furnished Studio-Loft,40.7736796486,-73.9519813703,110
275339,Renting a wonderful room on UES,40.7723390715,-73.9570164668,50
275443,"""Modern 1BR w/ Balcony - Times Sqr""",40.7633430835,-73.9865087761,269
275976,Lovely 2 bedroom apartment with backyard access,40.6863074096,-73.9370207749,165
276120,Sunny Apt Near Opera/Cafes-Sleeps 4,40.7787276368,-73.9846623904,235
276317,"The Carlton, Brooklyn brownstone Duplex w/ garden",40.6784733671,-73.9703846273,402
276482,Comfortable Manhattanville.,40.8137133178,-73.9558467676,85
276491,Perfect New York Studio Apartment,40.676915203,-73.9695675956,93
276994,charming 2BR apartment off Broadway,40.8045145552,-73.9645021653,90
277133,Williamsburg great location,40.7144456645,-73.961255491,130
277207,Beautiful lrg 1800's syle apt share,40.7286768917,-73.9583475597,75
277370,Location wins for East Village Apt,40.7316787614,-73.9866164777,99
278090,Furnished room for rent - Manhattan,40.7927964607,-73.9396683102,50
278145,Large Room in a Huge NY apartment.,40.771172568,-73.9190501908,30
278197,Lovely Room in Trendy Brooklyn!,40.6839870141,-73.9755553222,86
278631,West Village NYC Sun-filled Studio!,40.7372850523,-74.0080680213,250
278876,"Large, furnished room in a 2 bedroom!",40.6698415063,-73.9514143229,64
279093,1200 Sq.Ft. Historic Apt. in Harlem,40.8297738705,-73.9407104138,200
279857,"NYC House 5 Bathrooms 9 BedRooms, Groups Brooklyn",40.684921734,-73.9548908332,800
279969,Cozy Brownstone Inn I(studio),40.6825500982,-73.9195686339,100
280046,Beautiful Studio Rental,40.6823477051,-73.9229283873,125
280315,Crown Height's Brooklyn Cozy Apt,40.6739151014,-73.9466200847,250
280393,Prime Chelsea Sublet | Spacious,40.7442057947,-73.9956980958,60
281192,Designer loft in hip Williamsburg,40.7183547933,-73.9545412463,170
281308,"Clean, Attractive Apartment in a GREAT location",40.743213806,-73.9949600411,174
281521,Amazing West Village 2br,40.7387872297,-74.004247443,200
281703,Great 1 bdrm ap in the East Village,40.7280440894,-73.9810044911,130
281756,Authentic NY Charming Artist Loft,40.7332076342,-73.9558677317,120
281842,Beautiful Bedroom with Private Bathroom,40.8066269806,-73.9507407344,150
281851,Beautiful Private Bedroom - Downstairs,40.8067126708,-73.9508167137,99
282443,QT STUDIO FOR ROMANTIC COUPLES,40.716005339,-73.99123404,90
282514,"Priv Rm & Bath, in Lg, Sunny Bklyn Twn Hse",40.6810551763,-73.9291959946,97
282863,Cozy & Charming Boerum Hill Flat,40.6813063264,-73.9887931777,91
282977,Park Slope Brooklyn!  Sunny Bedroom.,40.672644595,-73.9813621316,125
283072,One bedroom sharing Bathroom,40.6788871234,-73.8640397,75
283090,Spacious East Village Apartment,40.7241000952,-73.9789853601,190
283184,Huge Williamsburg Loft..Perfect for Big Groups!,40.7076613316,-73.9519054154,300
283194,True 2 Bed/2 Bath in Chelsea,40.7438763321,-73.9992311235,450
283377,Beautiful LARGE W Vlge Studio,40.7364074054,-74.0039005368,225
283550,Hells Kitchen Ground Fl 1-bedroom,40.7600118154,-73.9913298813,139
284208,Pre War Park Slope on Prospect Park,40.6644066219,-73.9797367404,65
284855,Charming Apt in the Best Location!,40.733624049,-74.0092295981,220
285409,"Lofted Bedroom in our Bright, Airy Apartment!",40.7062308993,-73.9325837344,60
285442,Huge room with private balcony,40.7311901664,-73.9881904281,300
285716,Great spacious room by the L train!,40.6965732828,-73.9129037988,47
285853,Child-friendly 2 bedroom on UWS,40.7963679067,-73.9689326901,160
286662,Charming Brooklyn Studio,40.6710597197,-73.9546325611,110
286838,Private Room in Brownstone,40.8074766161,-73.9558935838,75
287272,Big Sunny Loft for FAM or FRIENDS,40.6790383813,-73.9490421481,125
287408,Lovely Hell's Kitchen Studio...,40.7614696368,-73.9915158904,150
287417,HOT SPOT FOR 20 AND 30 SOMETHING'S,40.6817432155,-73.9192066693,300
287421,"Cozy, Clean Cobble Hill Brownstone",40.6853796083,-74.0005617424,140
287481,Spacious Wburg Apt with Skylight,40.7083921527,-73.9428858311,120
287492,Kid friendly apmt! Central Park,40.7806340462,-73.9805514276,220
287814,"Big, Sunny, Modern Apartment w/VIEW",40.7127051525,-73.9627347593,170
287839,"Cozy, beautiful doormen studio-",40.690177016,-73.9810747746,175
287845,Carroll Gardens Gem-2BD with Garden,40.6812829168,-73.9952196281,275
287847,"Hip Whole Apt in Wmsburg, Brooklyn",40.7147965005,-73.9376528633,125
287916,UWS - Perfect location - 2 bedroom,40.7736430393,-73.9797253547,502
288043,West Village/Meat Packing Apt.,40.7389063067,-74.0086001775,155
288224,Sun-filled studio close to SOHO,40.717947847,-73.9942380217,239
288726,Cozy Railroad Apt.,40.7188583213,-73.9974092957,110
289020,Sunny 1BR Center of East Village!,40.7294750187,-73.9869369707,179
289037,"2BR in Cobble Hill, Brooklyn, NY",40.6835313466,-73.9914020313,189
289288,Perfect East Village Apartment,40.7250613665,-73.9886546493,199
289665,Decorators 5-Star Flat West Village,40.7289132469,-74.0029303838,450
289703,Beautiful SoHo Luxury Apartment,40.7252993981,-73.9991620359,249
289958,2 Rooms in Cottage NYC,40.7529517292,-73.9322773193,80
289995,Loft Like w/Garden- Williamsburg Bedford L Stop,40.7194664085,-73.9525215317,199
290058,Spectacular Bushwick One Bedroom,40.7021354256,-73.9221697556,150
290123,"LUXURY Apartment, Furnished, View!",40.7398831607,-73.9992676319,300
290193,"Great, Parkside Room in 4 bd apt!!!",40.6535477728,-73.9618389714,48
290457,Between Two Bridges 2BD -Whole Apt!,40.71282901,-73.9970271493,139
291714,Brooklyn Beauty - Home Away From Home,40.6738498833,-73.9440496927,120
291728,"Sunny,cozy,quiet studio in Nolita",40.7200381464,-73.9971011607,98
291764,"Large Glowing Private Room, Williamsburg Bedford L",40.7237199576,-73.9569408438,65
291812,"Entire Apartment in Astoria, 15mins from Manhattan",40.7685576393,-73.9182772747,70
292047,Gorgeous pvt room in West Village,40.7390803715,-74.0037776909,90
292121,1 bedroom apt in Midtown West,40.7624961511,-73.9868958658,199
292266,Sunny and spacious bedroom,40.6975503221,-73.9118730359,50
292361,Great appartment in Manhattan,40.7527218005,-73.9691984912,148
292637,Beautiful Spacious One Bedroom,40.6733479782,-73.9600038592,100
292927,Brooklyn Loft,40.7111165259,-73.9619457127,450
292954,Charming One Bedroom in Prospect Heights,40.6770123941,-73.9614131885,120
293004,Room next to Columbia Uni.,40.8049682799,-73.9514642349,110
293837,Private Apt with Skylight in Best Location,40.7073551451,-73.9433148333,86
294227,Loft Suite @ The Box House Hotel,40.7368267434,-73.9542962094,199
294239,NYC Summer Getaway | Full Home 2BR,40.7644386676,-73.9260706999,192
294242,Loft Suite @ The Box House Hotel,40.7388988095,-73.9539510132,199
294250,Beautiful New Garden Apartment ,40.7761128124,-73.9780782695,150
294259,Loft Suite @ Box House Hotel,40.7380614972,-73.9546223787,199
294263,Loft Suite @ The Box House Hotel,40.7366123395,-73.9547934545,199
294280,Loft Suite @ The Box House Hotel,40.738569422,-73.9543529185,199
294353,Williamsburg HUGE SUNNY next2train!,40.7068567931,-73.9536528765,135
294457,Cozy and Calm,40.6737108433,-73.9457831089,55
294490,Loft Suite @ Box House Hotel,40.738566394,-73.9529883386,199
294717,Modern apartment w/ gorgeous view,40.7109457373,-73.9523871531,125
295231,"Sunny, clean br available",40.7091779195,-73.9488101174,60
295998,Panoramic View Central Park & NYC,40.7909042823,-73.9676189939,300
296345,E Williamsburg Apartment with Yard,40.7114300621,-73.9415903418,75
296361,Nice Private Room Beauty in Queens,40.7370036967,-73.8744432067,59
296658,Sublet in Brooklyn/Lefferts Gardens,40.6646869326,-73.9609106179,44
296717,"Cozy Corner, Bedford Ave  Brooklyn!",40.6885538835,-73.9540513011,50
296844,"HISTORIC WILLIAMSBURG, BKLYN #1",40.7165251964,-73.9555431772,30
297611,Inexpensive apartment in exchange for cat-care,40.6930880453,-73.970744178,35
297698,The Brick Boudoir (btw Barney's & Gooogle),40.7397072775,-74.0003796471,175
297938,Private & Cozy Modern Luxury,40.6537944324,-73.9626567574,100
297962,"Private room in 2 br Apt, Wburg, BK",40.7063766403,-73.9662725748,70
298759,Large Double Room  Queenbed Wifi,40.6862154999,-73.9467539747,52
298782,Private single bed Room Wifi,40.6860915074,-73.947419287,49
298854,"Low$pacious in Williamsburg, Bklyn",40.7163500522,-73.9460874823,75
299062,1 Bdrm in 2 Bdrm Apt in Upper East Lux Drmn Bldng,40.772716745,-73.9530704768,190
299078,Charming 1BD in SoHo,40.7250870014,-74.0030433906,300
299531,Feel like you never leave your home,40.6679512407,-73.8923177604,100
299699,Sunny apartment  in Greenpoint,40.7258155481,-73.9584277363,145
300140,LARGE COZY GREAT FOR A FAMILY,40.753050726,-73.9992567752,310
301034,Furnished Bedroom long term rental,40.8063731734,-73.9543292221,140
301372,room with very nice view in Brooklyn,40.6856126833,-73.9761126159,50
302017,Sunny apartment with piano + yard!,40.6991983293,-73.9451831465,110
302057,Sunny private room featured in film,40.6438661008,-73.9685455551,75
302238,GORGEOUS 2-BDR PENTHOUSE APARTMENT,40.8061339416,-73.947228554,350
302280,FABULOUS 1 BEDROOM IN MANHATTAN,40.80756478,-73.9479227904,250
302309,PLUSH AND SPACIOUS 2-BEDROOM IN NYC,40.8068849344,-73.9475354382,350
302649,Artsy & Cozy Room in Crown Heights,40.6742654502,-73.9464140399,55
302758,Sunny 1BR East Harlem Apartment,40.7968005975,-73.9361068552,125
302782,Central Luxury Studio jan12-21,40.7524990341,-73.9964239462,300
303264,FABULOUS & LARGE 2 BEDROOM IN NYC!,40.8053300404,-73.9477442696,350
303462,Large Fully Furnished 1B/1BTH -,40.780118494,-73.9843936159,275
303725,Lovely studio in prime Fort Greene,40.6876391537,-73.9715613914,115
303851,Comfortable Room in New Apartment,40.6474332291,-74.006270247,59
304799,Penthouse Studio by Central Park,40.7750802964,-73.9799027378,195
305211,Your Own 2 Br Apt Bedford and Grand,40.7153173292,-73.9606353688,180
305245,BEAUTIFUL 2-BEDROOM TOWNHOUSE NYC,40.8060360952,-73.946031979,350
305670,Big Bright Upper West Side Classic ,40.8003676844,-73.9684546133,127
306190,Comfortable and Simple,40.6794305461,-73.9427218854,66
306251,UPPER WEST 70'S OFF BROADWAY HIT!,40.7773300106,-73.9829611811,275
309342,Giant Sunny Bedroom & Private Bath,40.7904385194,-73.9751300591,99
310220,Super cozy cottage-like space!Unique and pleasant,40.726681979,-73.9576183189,159
310272,The Undiscovered Borough Awaits,40.6231827283,-74.0784779849,59
310325,Large Sunny Bedroom with Bay Window,40.8228571814,-73.9459561778,75
310338,Harlem/Hamilton Heights Sunny Room,40.8245076804,-73.9445689864,70
310524,Clinton Hill Duplex near Pratt w/Balcony!,40.6934782818,-73.9592740893,62
311003,"2 BD / 2BA WITH GARDEN, SLEEPS 6",40.6767933172,-73.9563918191,225
311343,COMFORTABLE ROOM,40.7910661247,-73.9438083677,86
311356,Charming Ridgewood Soulful  Walk-Up,40.7021472828,-73.9113868036,49
311965,A Roomy Room in Times Square!,40.7553925834,-73.9879748953,85
312429,"comfortable, well-appointed room",40.6733939142,-73.9651923735,100
314442,Beautiful Brooklyn SubletAvailable!,40.6437108754,-73.9647235913,150
314982,Share in NYC's trendy East Village,40.7317130561,-73.987170631,89
315421,"1  Bedroom Apt, Chelsea Brownstone ",40.7463750668,-74.0001577027,220
316079,LES Studio Apartment - All yours!,40.7147734969,-73.9869635058,100
316238,Historic Brooklyn 2-Bedroom Apt,40.6921266378,-73.9510016213,135
317838,APT W/ OUTDOOR SPACE!! LONG TERM RENTAL PREFERRED!,40.7323705989,-74.0060848369,172
317905,Come and go as  you please in BKLN!,40.6435434137,-73.9777673972,89
318021,Room in Huge 1200sf W Harlem Suite,40.8034282405,-73.9531001265,110
318187,"Huge, Sunny, Open Loft in Brooklyn",40.704616871,-73.9228029902,120
319724,Cozy Nook in Heart of Williamsburg,40.7139411369,-73.9626705087,59
319798,Peaceful Room...,40.6339007124,-74.0203456918,49
319844,Cute Room in Historic Loft!,40.7302849758,-73.9592712096,79
320700,Beautiful view of the Hudson River!,40.768245216,-73.9892753064,150
320876,Amazing Park Slope Duplex with Deck,40.6648517486,-73.9834320485,185
320877,Entire 2 Bedroom Apartment in Williamsburg,40.7127898138,-73.9585166923,225
320900,CHELSEA HOME-STEPS TO THE HIGHLINE & SUBWAY!,40.7480866247,-74.0022881533,189
321014,Bright Beautiful Spacious 2BR in the East Village,40.7329397828,-73.9828244696,245
321082,Designer Duplex Williamsburg Bk'lyn,40.7088599409,-73.9536402843,65
321136,Charming Private Manhattan Studio,40.8345578355,-73.9456989525,109
321902,Super cosy 2 bedroom within 20 mins of Times Sq,40.8202084139,-73.9515869809,126
322037,"Luxury Williamsburg, Brooklyn LOFT",40.7209058302,-73.9581361748,325
322604,Artist Loft-McCarren Park-Williamsburg-BrooklynNYC,40.7181942015,-73.9541388167,75
322923,Alcove Studio Apt. Elevator  large,40.7683354664,-73.9539562481,160
322974,Chelsea/Meat Packing  Artist Space!,40.7388739673,-74.0034187452,120
323453,Brooklyn Design Loft,40.7055077505,-73.9330457386,180
323512,Very Large & Serene Artist Loft,40.712975232,-73.9900392343,329
324115,Large Master Bedroom - Williamsburg,40.7133641099,-73.9619227381,75
324517,Central Park Fifth Av MET Museum,40.7768809057,-73.9617680893,74
324800,Real Williamsburg Artist Loft,40.7136818817,-73.9447753149,175
325429,Lovely Upper East Yorkville 1 BDRM,40.7760985187,-73.9526499484,219
325710,Luxury large 1 BR in Soho,40.7199027753,-73.9941683728,125
326832,Cozy Upper East Side Studio ,40.7747105317,-73.9557398077,159
326956,"Large Cozy Room #2, Landmark Home 1 Block to PRATT",40.6862498075,-73.964458658,180
327521,"Lovely studio in East Village, NY",40.7249987858,-73.9885055823,150
328040,"Awesome views, Central location",40.7502294959,-73.9829315254,299
328693,Spacious Manhattan Apartment near Central Park,40.7886694039,-73.9680905909,179
329064,Your Historic House in Brooklyn,40.6359305638,-73.9607615436,500
329310,Creative Director's Chinatown Loft,40.7163790364,-73.9916667123,400
329385,"HOSTING YOUR SPACIOUS, SUNNY, PRIVATE NYC ROOM",40.8665808944,-73.9255789776,87
330610,**Great apartment for your stay***,40.7577884758,-73.9855757323,399
331854,Sunny and Spacious 2 Bedroom Near Prospect Park,40.674686658,-73.9668818377,199
331986,"Entire large, sunny apt for you!",40.8464246103,-73.9397037923,112
332208,Room In Greenpoint.,40.7265839317,-73.9513911036,94
333175,Best Location-Only 3 Subway STOPS from MANHATTAN!,40.7543947655,-73.9174317446,62
333189,Charming private room in New-York,40.7117864646,-73.9644916052,69
333323,Bedroom near Midtown Times Square,40.7618645539,-73.991648217,75
333472,bedroom in the heart of Fort Greene,40.6914830119,-73.9764664428,85
334607,Artist's Flat in Historic Building! #10263,40.7141745056,-73.9591743164,200
334781,Queen size sofa bed in Harlem,40.8277173767,-73.9387715533,80
335797,Bklyn 6 Beds 1 Bathroom Rental 2,40.6360238031,-73.9460686094,60
335819,Bklyn 4 Beds 1 Bathroom Rental 3,40.6375893286,-73.9459039941,60
335820,4 Beds 2 Bathrooms Rental 1,40.6361093191,-73.9463743501,72
336085,room in manhattan apartment,40.7666613397,-73.9803615259,180
336220,Stylish & Quiet NYC Retreat!,40.8030020946,-73.9527789601,149
337708,*3BD/great value Amazing Location*,40.7605935809,-73.9880331343,450
337922,ARTIST COZY ZONE (LOWER EASY SIDE) ,40.7210722654,-73.9875712881,140
339142,"Quiet room in central, safe area",40.7353813805,-73.9802662,119
339386,Classic  E Village Bright Dream Apt,40.7290403532,-73.9837027136,150
341314,Private Bedroom and LivingRoom,40.6842700909,-73.9566644242,100
341525,TIMES SQUARE MASTER BEDROOM!,40.7577182732,-73.9927122044,105
341982,"Lincoln Center Studio, Clean&Sunny!",40.7757729351,-73.9825842177,99
342264,Spacious Manhattan Studio Apartment,40.8028299868,-73.9676315276,145
342965,Super Clean Apt by Columbus Circle,40.7677372658,-73.9892008807,329
342995,Unique private room and bathroom in Brownstone,40.8116861565,-73.9435458544,75
343119,Great room 2 minutes from the train!,40.7083244239,-73.941467655,75
343276,TIMES SQUARE HOUSE!,40.7578185845,-73.9934934642,95
343971,Beautiful Room in New NYC Apartment,40.8317720864,-73.9499976737,75
344019,Best West Village/Meatpacking Space,40.7310400063,-74.0087911057,195
344068,21 day Chelsea Apartment rental,40.7425297777,-73.991595527,160
344092,"Heavy Sun, Quiet, Arty 1 Bedroom",40.6437215094,-74.0206643894,70
346248,Cosy apartment in West Village,40.7288614998,-74.0001340326,100
346579,NYC Lower East Side 1 BR + office ,40.7174151352,-73.9831273535,135
346805,Spacious Lower East Side Apt in NYC,40.718675578,-73.9901710465,140
347865,ARTY 2 BED EAST VILLAGE GEM,40.721427872,-73.9811700469,189
349841,Williamsburg Loft: Amazing Sublet,40.7168201804,-73.9636921456,160
350168,Artist 2BR in Park Slope w/backyard,40.6772459611,-73.9820977183,178
350525,Spacious 2BR near Botanic Garden,40.6688839801,-73.9529211654,145
351859,Exquisite Spacious Studio in Midtown,40.7496368212,-73.9915754652,226
352651,COMFORTABLE LARGE ROOM,40.6584627672,-73.9505714019,77
353317,Lower East Side 1bedroom apt in NYC,40.7151518216,-73.9902915028,129
353801,A Great Place to Stay in Brooklyn!,40.7052820195,-73.9417221849,75
354095,Large Beautiful East Village 1-Bdrm,40.7298642296,-73.9791324205,199
354514,Quiet Comfy Spacious Executive Love Nest!,40.7252135978,-73.9793902606,150
355106,Big room near Prospect Park! NY!,40.6603903854,-73.9593686326,92
357157,EAST VILLAGE Duplex with ROOF DECK!,40.728801162,-73.9800028197,425
357224,Great Room In Bushwick! Musicians!,40.6962634624,-73.9302839568,300
360400,Beautiful Room in Manhattan Loft,40.7455342861,-73.9894258819,135
361023,Last Minute Nice Big Brooklyn Loft ,40.7074008332,-73.9476816053,350
361803,"Luxury, Adorable Studio Apartment",40.7758401933,-73.9502049839,115
362139,Beautiful and Spacious Room in Homey Apartment,40.7073220978,-73.922008586,35
363320,Home away from home (A bedroom),40.7996682143,-73.9515638089,80
363673,Beautiful 3 bedroom in Manhattan,40.8014246628,-73.9693060781,3000
363950,COOL AND COZY APT YOU WILL LOVE IT.,40.6444041338,-73.9490952783,150
364785,Large sunny private room in Park Slope,40.6796156399,-73.976547047,80
365227,Cozy 1 bedroom in Union Square,40.7334854118,-73.9852186552,103
367042,Eastern Parkway Brooklyn 1BR Flat,40.6684746144,-73.9487463621,125
367810,1400sf Manhattan View Artistic Loft,40.7375956095,-73.9567753355,150
369411,"ingefära hus! Private room Williamsburg, Brooklyn",40.7114802979,-73.9557326135,85
369567,Private MasterBR w/ View of Museum,40.6742462796,-73.9651419737,68
369626,"Large, sunny, Manhattan room with a sweeping view!",40.7226798904,-73.9888649503,86
369831,BK CHARM~Clean Modern~XPrss Train!!,40.6507929016,-73.9640303984,69
371138,"Comfy Brooklyn 2BD, W/ Backyard",40.72488049,-73.9401327966,190
371835,Mod Brooklyn Apartment 1,40.6942926733,-73.9063207286,50
373618,"Loft guest room, best Williamsburg",40.7221179345,-73.9569646455,119
374548,Sunny Retreat with Roof Garden,40.6853360919,-73.9343283398,85
375249,Enjoy Staten Island Hospitality,40.6210894017,-74.165338836,45
377217,Great apt on the UWS - A RARE FIND!,40.7816123,-73.9789769075,145
378790,"Williamsburg, block from Bedford L",40.717250508,-73.957466056,180
378852,Cute Chic Studio - Heart of Chelsea,40.742262914,-73.9991780133,135
380416,Park Slope Sunny Studio,40.6740712315,-73.9811143201,125
380730,Luxury L-Shape Studio + 3 cats,40.5972071412,-73.9514871943,50
382523,A cozy Red Room with private bathroom,40.8049142439,-73.9486602971,150
382524,Cozy room with private bathroom & outside garden,40.8033373574,-73.9480479988,180
384058,Li’l Cozy Room Space,40.7187947303,-73.9895760981,75
385190,"Beautiful 1 bdrm, Inwood Manhattan",40.8703938242,-73.9161072954,100
385657,Beautiful Loft/10 min to Manhattan!,40.7040008152,-73.9328512285,50
385824,New York City- Riverdale Modern two bedrooms unit,40.8799136092,-73.9167254805,120
385853,Central Park Artsy Guest Room,40.7994944358,-73.9547362336,99
386507,"Stylish, Cool Apt in Harlem",40.8088224375,-73.9420037303,100
386555,A PLACE TO STAY CLOSE TO MANHATTAN,40.6276617008,-74.0798831448,119
386744,Great room priv/bathrm Eastside location 70's ST,40.7684982702,-73.9603353471,125
386799,Midtown NYC - 1 Bedroom Apartment,40.7608197332,-73.9754777946,250
387377,THERE'S NO PLACE LIKE HOME.........,40.8015134261,-73.952203823,175
387666,Cozy home in vibrant Manhattan,40.8343419397,-73.9402654709,99
387735,LOCATION LOCATION LOCATION Sara's,40.7367717674,-73.9808437642,199
389482,Quaint & Quiet in Queens,40.7115096989,-73.8156124835,75
391955,Charming brownstone apt with patio,40.6863561662,-74.0034517463,149
392794,Full Rm - Chelsea Gallery District,40.7475081717,-74.0004726768,85
392948,williamsburg . 10 min from soho .,40.7099397542,-73.9657320745,45
393016,Your Hell's Kitchen Sanctuary,40.7601321924,-73.9900676822,104
393094,Designer studio in Luxury Building,40.7062052977,-74.0152479233,235
393479,NYC 2 Bedroom-Perfect for families!,40.7994136753,-73.970256657,190
393682,Private cozy bedroom in Nolita,40.7217217663,-73.9968877461,100
393868,Fun Bedrom Next to Central Park.,40.800445826,-73.955886554,90
393875,Right next to Central Park w/Piano,40.801321647,-73.9543024933,110
394111,"Beautiful Bedrooms in Briarwood, NY",40.7106800227,-73.815766682,75
394115,"Big bright & private, heart o Wburg",40.7119449211,-73.9446560187,70
394235,Flatiron-Designer's loft,40.7412480475,-73.9886217285,350
394474,GREAT 1BR-TIMES SQ/ MIDTOWN WEST,40.7588248918,-73.9879614608,95
395613,Best Location in Greenwich Village,40.7335332807,-73.9928009161,275
396636,Stylish Designer Studio with Piano,40.83090834,-73.9422289803,135
397034,New York City for All Seasons!,40.7823994952,-73.9829442573,125
397297,STUNNING E Vill Penthouse,40.7263433882,-73.982674147,225
397420,New York Host who knows The Most,40.8270318334,-73.9431077463,85
398281,One Block From Central Park!,40.7852088806,-73.9548917008,200
398283,"PARK SLOPE: SWEET, LARGE 2BR DUPLEX",40.6610623172,-73.9831609674,250
398682,KOZY ROOM IN FORT GREENE BROOKLYN..,40.6911186944,-73.9707263245,85
399640,Amazing location-Sunny Bedroom-Lower East Side,40.719579642,-73.9921428417,90
399946,Light Superhosted Chill LES Apt,40.7212255475,-73.9899563048,90
400039,Big Beautiful Railroad in Brooklyn,40.703392543,-73.9294478209,130
401039,Big and Comfy room near Yankee1,40.8488646663,-73.912226114,44
401044,Avail Dec 24-30 - Brooklyn Large 3+ BR w/ Hot Tub,40.6951007841,-73.971122277,345
401579,"ECO-APT, free YOGA, 2 new bedrooms. Best location!",40.6793852861,-73.9939802606,298
401836,"Sunny UES 1.5 Bedroom, Sleeps 6",40.7649414115,-73.9580419324,300
402037,Stay with a Jazz Singer in Harlem!,40.8019166982,-73.9582735313,125
402273,Cozy space w/ a veteran Superhost!,40.6987317271,-73.9269904737,65
403056,Large Private Room Near Central Park & Mount Sinai,40.7933003641,-73.9480136653,68
403264,Luxury room in Manhattan Duplex Apt,40.7453012452,-73.9905628098,145
403668,"Gorgeous Sunny, Spacious 1 bdrm in East Village",40.7281219018,-73.9796629294,139
404502,ARTIST LOFT+OFFICE in PRIME WILLIAMSBURG!,40.7093019603,-73.9648372247,123
404923,Private Garden Entry,40.6479130138,-73.9790443688,88
405408,Soho Studio Loft!  READ OUR REVIEWS!,40.7205749542,-73.9997633474,250
406926,Nolita apt. with private garden,40.7233965748,-73.9943940123,269
406992,Family friendly Williamsburg Apt for the Holiday,40.7112143354,-73.9466946641,145
407469,BROWNSTONE TWO IN BROOKLYN in NYC,40.6897890656,-73.9166121711,75
408099,Cozy apartment near Times Square,40.7587323749,-73.9932456559,259
408406,Large Apartment in INCREDIBLE location,40.6825895754,-73.9812688019,85
408491,Charming West Village One Bedroom,40.7344833636,-73.9979732771,145
408983,Brooklyn Brownstone full floor/garden ProspectPark,40.6593714492,-73.9590621219,229
409262,"Family friendly,  steps to subway, large garden :)",40.6859915538,-73.9882638644,250
409293,Private Sunny Room Near Central Park & Mount Sinai,40.7949299413,-73.9499448706,55
409666,"1 bdr apt, sunny close to the beach",40.5781040807,-73.9545512096,75
411336,"""Simple Perfect Soho""",40.7227800031,-73.9967001181,225
411525,Beautiful Room + Private Balcony,40.7147163361,-73.9622497801,69
411918,"3 BR apartment Crown Heights, BKLYN",40.6692350348,-73.9440565971,160
412061,Brownstone Sunny & Spacious top fl,40.6725936155,-73.9548913137,125
412092,Stay in our Charming Park Slope Apartment,40.6745007471,-73.9791149232,139
412180,"Morocco in Brooklyn with the flyest loft, Amazing!",40.6932123472,-73.9441984818,95
413504,Perfect NYC/Williamsburg Location,40.7134800991,-73.9444712582,109
413528,"My loft, your loft!",40.7072832197,-73.9322021812,119
413567,Room3-Comfy+Clean Queen Bed @TWBGH,40.7101477922,-73.9449491036,115
413605,East Village Apartment,40.7282049611,-73.9858500547,259
413775,Midtown East Sutton Area Entire Apt,40.7581582536,-73.9645738428,250
413815,GREAT PRIVATE BEDROOM ,40.7615227405,-73.9501832093,75
414553,Bright & Spacious Greenpoint / Williamsburg Apt,40.7217066965,-73.9499822703,150
414801,4500sqft  Authentic Brooklyn Loft,40.6872188831,-73.962891929,550
415304,Cute east village apartment.,40.7311104999,-73.9852822215,175
416108,Private Cozy Quiet Room Center Manhattan,40.7413255722,-73.9787709476,90
416426,Modern Garden Family Townhouse,40.7780140379,-73.9838492298,349
416557,"All Charm: Lush Garden, Huge Kitchen + Quiet",40.7221208195,-73.9438850677,87
417685,Bright and Quiet 2 BR in Park Slope,40.6662574183,-73.9793257717,160
417935,Sunny & Spacious Lower East Side / Chinatown Loft,40.7132509507,-73.9953297063,248
418291,"Cozy, bright and PRIVATE 1BR apt in east village",40.7297781126,-73.9793025612,150
418846,Legal 1 Year Sublet Harlem 1 Bedroom Furnished,40.8101352813,-73.9396705235,45
419200,2BR Bright SoHo Apartment Fits 5!,40.72695905,-73.9989823859,300
419373,Stylish Loft w/Lovely Backyard,40.6883762139,-73.9419298941,80
419792,Great Apt IDEAL Location 900 SF,40.7180359639,-73.9856486988,200
420001,Beautiful gem on Upper West Side,40.8015063003,-73.9659449631,147
421539,Manhattan Apartment for short stays,40.7895915428,-73.9490244873,199
423015,"Cozy Private One Bedroom, Brooklyn",40.6901773222,-73.9552965061,45
